$GNGGA,110536.000,3857.8544,N,00008.0815,W,2,35,0.45,2.5,M,51.5,M,,*62
$GNGSA,A,3,01,02,03,08,17,32,14,22,04,27,,,0.82,0.45,0.69,1*0E
$GNGSA,A,3,71,86,70,85,72,87,77,,,,,,0.82,0.45,0.69,2*0E
$GNRMC,110536.000,A,3857.8544,N,00008.0815,W,0.01,3.67,050725,,,D,V*1B
$GNGGA,110537.000,3857.8544,N,00008.0815,W,2,35,0.45,2.4,M,51.5,M,,*62
$GNGSA,A,3,01,02,03,08,17,32,14,22,04,27,,,0.82,0.45,0.69,1*0E
$GNGSA,A,3,71,86,70,85,72,87,77,,,,,,0.82,0.45,0.69,2*0E
$GPGSV,3,1,12,01,68,342,38,02,63,066,43,03,62,251,33,49,44,171,43,1*68
$GPGSV,3,2,12,08,39,162,28,17,26,315,30,32,21,045,26,14,21,282,27,1*61
$GPGSV,3,3,12,22,19,300,23,04,16,180,32,27,08,149,32,28,01,086,,1*63
$GNRMC,110537.000,A,3857.8544,N,00008.0815,W,0.01,3.67,050725,,,D,V*1A
$GNGGA,110538.000,3857.8544,N,00008.0815,W,2,35,0.45,2.5,M,51.5,M,,*6C
$GNGSA,A,3,01,02,03,08,17,14,32,22,04,27,,,0.82,0.45,0.69,1*0E
$GNGSA,A,3,71,86,70,85,72,87,77,,,,,,0.82,0.45,0.69,2*0E
$GNRMC,110538.000,A,3857.8544,N,00008.0815,W,0.01,3.67,050725,,,D,V*15
,02,08,17,14,32,22,04,27,,,0.81,0.45,0.68,1*0C
$GNGSA,A,3,71,86,70,85,72,87,77,,,,,,0.81,0.45,0.68,2*0C
$GNRMC,110713.000,A,3857.8543,N,00008.0806,W,0.01,3.67,050725,,,D,V*1B
$GNGGA,110714.000,3857.8543,N,00008.0806,W,2,35,0.45,3.1,M,51.5,M,,*60
$GNGSA,A,3,01,03,02,08,17,14,32,22,04,27,,,0.81,0.45,0.68,1*0C
$GNGSA,A,3,71,86,70,85,72,87,77,,,,,,0.81,0.45,0.68,2*0C
$GNRMC,110714.000,A,3857.8543,N,00008.0806,W,0.01,3.67,050725,,,D,V*1C
$GNGGA,110715.000,3857.8542,N,00008.0806,W,2,35,0.45,3.2,M,51.5,M,,*63
$GNGSA,A,3,01,03,02,08,17,14,32,22,04,27,,,0.81,0.45,0.68,1*0C
$GNGSA,A,3,71,86,70,85,72,87,77,,,,,,0.81,0.45,0.68,2*0C
$GNRMC,110715.000,A,3857.8542,N,00008.0806,W,0.00,3.67,050725,,,D,V*1D
$GNGGA,110716.000,3857.8543,N,00008.0806,W,2,35,0.45,3.2,M,51.5,M,,*61
$GNGSA,A,3,01,03,02,08,17,14,32,22,04,27,,,0.81,0.45,0.68,1*0C
$GNGSA,A,3,71,86,70,85,72,87,77,,,,,,0.81,0.45,0.68,2*0C
$GNRMC,110716.000,A,3857.8543,N,00008.0806,W,0.00,3.67,050725,,,D,V*1F
$GNGGA,110717.000,3857.8543,N,00008.0806,W,2,35,0.45,3.3,M,51.5,M,,*61
$GNGSA,A,3,01,03,02,08,17,14,32,22,04,27,,,0.81,0.45,0.68,1*0C
$GNGSA,A,3,71,86,70,85,72,87,77,,,,,,0.81,0.45,0.68,2*0C
$GPGSV,4,1,13,01,68,345,40,03,63,253,30,02,62,069,42,49,44,171,41,1*6B
$GPGSV,4,2,13,08,38,162,24,17,27,315,31,14,21,281,22,32,20,044,31,1*6A
$GPGSV,4,3,13,22,19,299,24,04,17,180,34,27,07,150,34,19,01,319,,1*62
$GPGSV,4,4,13,28,01,085,,1*50
$GNRMC,110717.000,A,3857.8543,N,00008.0806,W,0.01,3.67,050725,,,D,V*1F
$GNGGA,110718.000,3857.8542,N,00008.0806,W,2,35,0.45,3.3,M,51.5,M,,*6F
$GNGSA,A,3,01,03,02,08,17,14,32,22,04,27,,,0.81,0.45,0.68,1*0C
$GNGSA,A,3,71,86,70,85,72,87,77,,,,,,0.81,0.45,0.68,2*0C
$GNRMC,110718.000,A,3857.8542,N,00008.0806,W,0.01,3.67,050725,,,D,V*11
$GNGGA,110719.000,3857.8542,N,00008.0805,W,2,35,0.45,3.4,M,51.5,M,,*6A
$GNGSA,A,3,01,03,02,08,17,14,32,22,04,27,,,0.81,0.45,0.68,1*0C
$GNGSA,A,3,71,86,70,85,72,87,77,,,,,,0.81,0.45,0.68,2*0C
$GNRMC,110719.000,A,3857.8542,N,00008.0805,W,0.01,3.67,050725,,,D,V*13
$GNGGA,110720.000,3857.8542,N,00008.0805,W,2,35,0.45,3.4,M,51.5,M,,*60
$GNGSA,A,3,01,03,02,08,17,14,32,22,04,27,,,0.81,0.45,0.68,1*0C
$GNGSA,A,3,71,86,70,85,72,87,77,,,,,,0.81,0.45,0.68,2*0C
$GNRMC,110720.000,A,3857.8542,N,00008.0805,W,0.01,3.67,050725,,,D,V*19
$GNGGA,110721.000,3857.8542,N,00008.0805,W,2,35,0.45,3.5,M,51.5,M,,*60
$GNGSA,A,3,01,03,02,08,17,14,32,22,04,27,,,0.81,0.45,0.68,1*0C
$GNGSA,A,3,71,86,70,85,72,87,77,,,,,,0.81,0.45,0.68,2*0C
$GNRMC,110721.000,A,3857.8542,N,00008.0805,W,0.01,3.67,050725,,,D,V*18
$GNGGA,110722.000,3857.8542,N,00008.0804,W,2,35,0.45,3.5,M,51.5,M,,*62
$GNGSA,A,3,01,03,02,08,17,14,32,22,04,27,,,0.81,0.45,0.68,1*0C
$GNGSA,A,3,71,86,70,85,72,87,77,,,,,,0.81,0.45,0.68,2*0C
$GPGSV,4,1,13,01,68,345,39,03,63,253,30,02,62,069,41,49,44,171,41,1*66
$GPGSV,4,2,13,08,38,162,24,17,27,315,30,14,21,281,22,32,20,044,30,1*6A
$GPGSV,4,3,13,22,19,299,24,04,17,180,33,27,07,150,33,19,01,319,,1*62
$GPGSV,4,4,13,28,01,085,,1*50
$GNRMC,110722.000,A,3857.8542,N,00008.0804,W,0.01,3.67,050725,,,D,V*1A
$GNGGA,110723.000,3857.8541,N,00008.0804,W,2,35,0.45,3.5,M,51.5,M,,*60
$GNGSA,A,3,01,03,02,08,17,14,32,22,04,27,,,0.81,0.45,0.68,1*0C
$GNGSA,A,3,71,86,70,85,72,87,77,,,,,,0.81,0.45,0.68,2*0C
$GNRMC,110723.000,A,3857.8541,N,00008.0804,W,0.01,3.67,050725,,,D,V*18
$GNGGA,110724.000,3857.8541,N,00008.0804,W,2,35,0.45,3.5,M,51.5,M,,*67
$GNGSA,A,3,01,03,02,08,17,14,32,22,04,27,,,0.81,0.45,0.68,1*0C
$GNGSA,A,3,71,86,70,85,72,87,77,,,,,,0.81,0.45,0.68,2*0C
$GNRMC,110724.000,A,3857.8541,N,00008.0804,W,0.01,3.67,050725,,,D,V*1F
$GNGGA,110725.000,3857.8541,N,00008.0804,W,2,35,0.45,3.5,M,51.5,M,,*66
$GNGSA,A,3,01,03,02,08,17,14,32,22,04,27,,,0.81,0.45,0.68,1*0C
$GNGSA,A,3,71,86,70,85,72,87,77,,,,,,0.81,0.45,0.68,2*0C
$GNRMC,110725.000,A,3857.8541,N,00008.0804,W,0.01,3.67,050725,,,D,V*1E
$GNGGA,110726.000,3857.8541,N,00008.0805,W,2,35,0.45,3.5,M,51.5,M,,*64
$GNGSA,A,3,01,03,02,08,17,14,32,22,04,27,,,0.81,0.45,0.68,1*0C
$GNGSA,A,3,71,86,70,85,72,87,77,,,,,,0.81,0.45,0.68,2*0C
$GNRMC,110726.000,A,3857.8541,N,00008.0805,W,0.01,3.67,050725,,,D,V*1C
$GNGGA,110727.000,3857.8541,N,00008.0805,W,2,35,0.45,3.5,M,51.5,M,,*65
$GNGSA,A,3,01,03,02,08,17,14,32,22,04,27,,,0.81,0.45,0.68,1*0C
$GNGSA,A,3,71,86,70,85,72,87,77,,,,,,0.81,0.45,0.68,2*0C
$GPGSV,4,1,13,01,68,345,39,03,63,253,35,02,62,069,41,49,44,171,40,1*62
$GPGSV,4,2,13,08,38,162,23,17,27,315,25,14,21,281,27,32,20,044,29,1*64
$GPGSV,4,3,13,22,19,299,26,04,17,180,31,27,07,150,31,19,01,319,,1*60
$GPGSV,4,4,13,28,01,085,,1*50
$GNRMC,110727.000,A,3857.8541,N,00008.0805,W,0.01,3.67,050725,,,D,V*1D
$GNGGA,110728.000,3857.8541,N,00008.0805,W,2,35,0.45,3.5,M,51.5,M,,*6A
$GNGSA,A,3,01,03,02,08,17,14,32,22,04,27,,,0.81,0.45,0.68,1*0C
$GNGSA,A,3,71,86,70,85,72,87,77,,,,,,0.81,0.45,0.68,2*0C
$GNRMC,110728.000,A,3857.8541,N,00008.0805,W,0.01,3.67,050725,,,D,V*12
$GNGGA,110729.000,3857.8540,N,00008.0805,W,2,35,0.45,3.5,M,51.5,M,,*6A
$GNGSA,A,3,01,03,02,08,17,14,32,22,04,27,,,0.81,0.45,0.68,1*0C
$GNGSA,A,3,71,86,70,85,72,87,77,,,,,,0.81,0.45,0.68,2*0C
$GNRMC,110729.000,A,3857.8540,N,00008.0805,W,0.02,3.67,050725,,,D,V*11
$GNGGA,110730.000,3857.8540,N,00008.0805,W,2,35,0.45,3.5,M,51.5,M,,*62
$GNGSA,A,3,01,03,02,08,17,14,32,22,04,27,,,0.81,0.45,0.68,1*0C
$GNGSA,A,3,71,86,70,85,72,87,77,,,,,,0.81,0.45,0.68,2*0C
$GNRMC,110730.000,A,3857.8540,N,00008.0805,W,0.02,3.67,050725,,,D,V*19
$GNGGA,110731.000,3857.8540,N,00008.0805,W,2,35,0.45,3.6,M,51.5,M,,*60
$GNGSA,A,3,01,03,02,08,17,14,32,22,04,27,,,0.81,0.45,0.68,1*0C
$GNGSA,A,3,71,86,70,85,72,87,77,,,,,,0.81,0.45,0.68,2*0C
$GNRMC,110731.000,A,3857.8540,N,00008.0805,W,0.01,3.67,050725,,,D,V*1B
$GNGGA,110732.000,3857.8540,N,00008.0805,W,2,35,0.45,3.7,M,51.5,M,,*62
$GNGSA,A,3,01,03,02,08,17,14,32,22,04,27,,,0.81,0.45,0.68,1*0C
$GNGSA,A,3,71,86,70,85,72,87,77,,,,,,0.81,0.45,0.68,2*0C
$GPGSV,4,1,13,01,68,345,39,03,63,253,35,02,62,069,41,49,44,171,40,1*62
$GPGSV,4,2,13,08,38,162,22,17,27,315,24,14,21,281,28,32,20,044,29,1*6B
$GPGSV,4,3,13,22,19,299,26,04,17,180,31,27,07,150,31,19,01,319,,1*60
$GPGSV,4,4,13,28,01,085,,1*50
$GNRMC,110732.000,A,3857.8540,N,00008.0805,W,0.02,3.67,050725,,,D,V*1B
$GNGGA,110733.000,3857.8540,N,00008.0805,W,2,35,0.45,3.7,M,51.5,M,,*63
$GNGSA,A,3,01,03,02,08,17,14,32,22,04,27,,,0.81,0.45,0.68,1*0C
$GNGSA,A,3,71,86,70,85,72,87,77,,,,,,0.81,0.45,0.68,2*0C
$GNRMC,110733.000,A,3857.8540,N,00008.0805,W,0.01,3.67,050725,,,D,V*19
$GNGGA,110734.000,3857.8540,N,00008.0805,W,2,35,0.45,3.6,M,51.5,M,,*65
$GNGSA,A,3,01,03,02,08,17,14,32,22,04,27,,,0.81,0.45,0.68,1*0C
$GNGSA,A,3,71,86,70,85,72,87,77,,,,,,0.81,0.45,0.68,2*0C
$GNRMC,110734.000,A,3857.8540,N,00008.0805,W,0.01,3.67,050725,,,D,V*1E
$GNGGA,110735.000,3857.8540,N,00008.0805,W,2,35,0.45,3.6,M,51.5,M,,*64
$GNGSA,A,3,01,03,02,08,17,14,32,22,04,27,,,0.81,0.45,0.68,1*0C
$GNGSA,A,3,71,86,70,85,72,87,77,,,,,,0.81,0.45,0.68,2*0C
$GNRMC,110735.000,A,3857.8540,N,00008.0805,W,0.02,3.67,050725,,,D,V*1C
$GNGGA,110736.000,3857.8540,N,00008.0806,W,2,35,0.45,3.6,M,51.5,M,,*64
$GNGSA,A,3,01,03,02,08,17,14,32,22,04,27,,,0.81,0.45,0.68,1*0C
$GNGSA,A,3,71,86,70,85,72,87,77,,,,,,0.81,0.45,0.68,2*0C
$GNRMC,110736.000,A,3857.8540,N,00008.0806,W,0.01,3.67,050725,,,D,V*1F
$GNGGA,110737.000,3857.8540,N,00008.0806,W,2,35,0.45,3.7,M,51.5,M,,*64
$GNGSA,A,3,01,03,02,08,17,14,32,22,04,27,,,0.81,0.45,0.68,1*0C
$GNGSA,A,3,71,86,70,85,72,87,77,,,,,,0.81,0.45,0.68,2*0C
$GPGSV,4,1,13,01,68,345,38,03,63,253,36,02,62,069,41,49,44,171,40,1*60
$GPGSV,4,2,13,08,38,162,24,17,27,315,24,14,21,281,28,32,20,044,30,1*65
$GPGSV,4,3,13,22,19,299,26,04,17,180,30,27,07,150,31,19,01,319,,1*61
$GPGSV,4,4,13,28,01,085,,1*50
$GNRMC,110737.000,A,3857.8540,N,00008.0806,W,0.01,3.67,050725,,,D,V*1E
$GNGGA,110738.000,3857.8540,N,00008.0806,W,2,35,0.45,3.7,M,51.5,M,,*6B
$GNGSA,A,3,01,03,02,08,17,14,32,22,04,27,,,0.81,0.45,0.68,1*0C
$GNGSA,A,3,71,86,70,85,72,87,77,,,,,,0.81,0.45,0.68,2*0C
$GNRMC,110738.000,A,3857.8540,N,00008.0806,W,0.01,3.67,050725,,,D,V*11
$GNGGA,110739.000,3857.8540,N,00008.0806,W,2,35,0.45,3.7,M,51.5,M,,*6A
$GNGSA,A,3,01,03,02,08,17,14,32,22,04,27,,,0.81,0.45,0.68,1*0C
$GNGSA,A,3,71,86,70,85,72,87,77,,,,,,0.81,0.45,0.68,2*0C
$GNRMC,110739.000,A,3857.8540,N,00008.0806,W,0.01,3.67,050725,,,D,V*10
$GNGGA,110740.000,3857.8540,N,00008.0806,W,2,35,0.45,3.7,M,51.5,M,,*64
$GNGSA,A,3,01,03,02,08,17,14,32,22,04,27,,,0.81,0.45,0.68,1*0C
$GNGSA,A,3,71,86,70,85,72,87,77,,,,,,0.81,0.45,0.68,2*0C
$GNRMC,110740.000,A,3857.8540,N,00008.0806,W,0.00,3.67,050725,,,D,V*1F
$GNGGA,110741.000,3857.8540,N,00008.0806,W,2,35,0.45,3.6,M,51.5,M,,*64
$GNGSA,A,3,01,03,02,08,17,14,32,22,04,27,,,0.81,0.45,0.68,1*0C
$GNGSA,A,3,71,86,70,85,72,87,77,,,,,,0.81,0.45,0.68,2*0C
$GNRMC,110741.000,A,3857.8540,N,00008.0806,W,0.01,3.67,050725,,,D,V*1F
$GNGGA,110742.000,3857.8540,N,00008.0807,W,2,35,0.45,3.6,M,51.5,M,,*66
$GNGSA,A,3,01,03,02,08,17,14,32,22,04,27,,,0.81,0.45,0.68,1*0C
$GNGSA,A,3,71,86,70,85,72,87,77,,,,,,0.81,0.45,0.68,2*0C
$GPGSV,4,1,13,01,68,345,39,03,63,253,36,02,62,069,40,49,44,171,40,1*60
$GPGSV,4,2,13,08,38,162,17,17,27,315,23,14,21,281,29,32,20,044,29,1*6B
$GPGSV,4,3,13,22,19,299,26,04,17,180,32,27,07,150,32,19,01,319,,1*60
$GPGSV,4,4,13,28,01,085,,1*50
$GNRMC,110742.000,A,3857.8540,N,00008.0807,W,0.01,3.67,050725,,,D,V*1D
$GNGGA,110743.000,3857.8540,N,00008.0807,W,2,35,0.45,3.6,M,51.5,M,,*67
$GNGSA,A,3,01,03,02,08,17,14,32,22,04,27,,,0.81,0.45,0.68,1*0C
$GNGSA,A,3,71,86,70,85,72,87,77,,,,,,0.81,0.45,0.68,2*0C
$GNRMC,110743.000,A,3857.8540,N,00008.0807,W,0.01,3.67,050725,,,D,V*1C
$GNGGA,110744.000,3857.8541,N,00008.0807,W,2,35,0.45,3.7,M,51.5,M,,*60
$GNGSA,A,3,01,03,02,08,17,14,32,22,04,27,,,0.81,0.45,0.68,1*0C
$GNGSA,A,3,71,86,70,85,72,87,77,,,,,,0.81,0.45,0.68,2*0C
$GNRMC,110744.000,A,3857.8541,N,00008.0807,W,0.01,3.67,050725,,,D,V*1A
$GNGGA,110745.000,3857.8541,N,00008.0807,W,2,35,0.45,3.7,M,51.5,M,,*61
$GNGSA,A,3,01,03,02,08,17,14,32,22,04,27,,,0.81,0.45,0.68,1*0C
$GNGSA,A,3,71,86,70,85,72,87,77,,,,,,0.81,0.45,0.68,2*0C
$GNRMC,110745.000,A,3857.8541,N,00008.0807,W,0.02,3.67,050725,,,D,V*18
$GNGGA,110746.000,3857.8541,N,00008.0807,W,2,35,0.45,3.7,M,51.5,M,,*62
$GNGSA,A,3,01,03,02,08,17,14,32,22,04,27,,,0.81,0.45,0.68,1*0C
$GNGSA,A,3,71,86,70,85,72,87,77,,,,,,0.81,0.45,0.68,2*0C
$GNRMC,110746.000,A,3857.8541,N,00008.0807,W,0.02,3.67,050725,,,D,V*1B
$GNGGA,110747.000,3857.8541,N,00008.0807,W,2,35,0.45,3.8,M,51.5,M,,*6C
$GNGSA,A,3,01,03,02,08,17,14,32,22,04,27,,,0.81,0.45,0.68,1*0C
$GNGSA,A,3,71,86,70,85,72,87,77,,,,,,0.81,0.45,0.68,2*0C
$GPGSV,4,1,13,01,68,345,38,03,63,253,35,02,62,069,39,49,44,171,40,1*6C
$GPGSV,4,2,13,08,38,162,20,17,27,315,24,14,21,281,29,32,20,044,29,1*68
$GPGSV,4,3,13,22,19,299,25,04,17,180,31,27,07,150,32,19,01,319,,1*60
$GPGSV,4,4,13,28,01,085,,1*50
$GNRMC,110747.000,A,3857.8541,N,00008.0807,W,0.01,3.67,050725,,,D,V*19
$GNGGA,110748.000,3857.8541,N,00008.0807,W,2,35,0.45,3.8,M,51.5,M,,*63
$GNGSA,A,3,01,03,02,08,17,14,32,22,04,27,,,0.81,0.45,0.68,1*0C
$GNGSA,A,3,71,86,70,85,72,87,77,,,,,,0.81,0.45,0.68,2*0C
$GNRMC,110748.000,A,3857.8541,N,00008.0807,W,0.01,3.67,050725,,,D,V*16
$GNGGA,110749.000,3857.8542,N,00008.0808,W,2,35,0.45,3.8,M,51.5,M,,*6E
$GNGSA,A,3,01,03,02,08,17,14,32,22,04,27,,,0.81,0.45,0.68,1*0C
$GNGSA,A,3,71,86,70,85,72,87,77,,,,,,0.81,0.45,0.68,2*0C
$GNRMC,110749.000,A,3857.8542,N,00008.0808,W,0.01,3.67,050725,,,D,V*1B
$GNGGA,110750.000,3857.8542,N,00008.0807,W,2,35,0.45,3.8,M,51.5,M,,*69
$GNGSA,A,3,01,03,02,08,17,14,32,22,04,27,,,0.81,0.45,0.68,1*0C
$GNGSA,A,3,71,86,70,85,72,87,77,,,,,,0.81,0.45,0.68,2*0C
$GNRMC,110750.000,A,3857.8542,N,00008.0807,W,0.01,3.67,050725,,,D,V*1C
$GNGGA,110751.000,3857.8542,N,00008.0807,W,2,35,0.45,3.8,M,51.5,M,,*68
$GNGSA,A,3,01,03,02,08,17,14,32,22,04,27,,,0.81,0.45,0.68,1*0C
$GNGSA,A,3,71,86,70,85,72,87,77,,,,,,0.81,0.45,0.68,2*0C
$GNRMC,110751.000,A,3857.8542,N,00008.0807,W,0.01,3.67,050725,,,D,V*1D
$GNGGA,110752.000,3857.8542,N,00008.0807,W,2,35,0.45,3.8,M,51.5,M,,*6B
$GNGSA,A,3,01,03,02,08,17,14,32,22,04,27,,,0.81,0.45,0.68,1*0C
$GNGSA,A,3,71,86,70,85,72,87,77,,,,,,0.81,0.45,0.68,2*0C
$GPGSV,4,1,13,01,68,345,37,03,63,253,32,02,62,069,38,49,44,171,39,1*6B
$GPGSV,4,2,13,08,38,162,19,17,27,315,26,14,21,281,26,32,20,044,30,1*67
$GPGSV,4,3,13,22,19,299,22,04,17,180,30,27,07,150,31,19,01,319,,1*65
$GPGSV,4,4,13,28,01,085,,1*50
$GNRMC,110752.000,A,3857.8542,N,00008.0807,W,0.01,3.67,050725,,,D,V*1E
$GNGGA,110753.000,3857.8543,N,00008.0807,W,2,35,0.45,3.8,M,51.5,M,,*6B
$GNGSA,A,3,01,03,02,08,17,14,32,22,04,27,,,0.81,0.45,0.68,1*0C
$GNGSA,A,3,71,86,70,85,72,87,77,,,,,,0.81,0.45,0.68,2*0C
$GNRMC,110753.000,A,3857.8543,N,00008.0807,W,0.01,3.67,050725,,,D,V*1E
$GNGGA,110754.000,3857.8543,N,00008.0807,W,2,35,0.45,3.8,M,51.5,M,,*6C
$GNGSA,A,3,01,03,02,08,17,14,32,22,04,27,,,0.81,0.45,0.68,1*0C
$GNGSA,A,3,71,86,70,85,72,87,77,,,,,,0.81,0.45,0.68,2*0C
$GNRMC,110754.000,A,3857.8543,N,00008.0807,W,0.01,3.67,050725,,,D,V*19
$GNGGA,110755.000,3857.8543,N,00008.0807,W,2,35,0.45,3.8,M,51.5,M,,*6D
$GNGSA,A,3,01,03,02,08,17,14,32,22,04,27,,,0.81,0.45,0.68,1*0C
$GNGSA,A,3,71,86,70,85,72,87,77,,,,,,0.81,0.45,0.68,2*0C
$GNRMC,110755.000,A,3857.8543,N,00008.0807,W,0.00,3.67,050725,,,D,V*19
$GNGGA,110756.000,3857.8543,N,00008.0808,W,2,35,0.45,3.8,M,51.5,M,,*61
$GNGSA,A,3,01,03,02,08,17,14,32,22,04,27,,,0.81,0.45,0.68,1*0C
$GNGSA,A,3,71,86,70,85,72,87,77,,,,,,0.81,0.45,0.68,2*0C
$GNRMC,110756.000,A,3857.8543,N,00008.0808,W,0.00,3.67,050725,,,D,V*15
$GNGGA,110757.000,3857.8543,N,00008.0807,W,2,35,0.45,3.7,M,51.5,M,,*60
$GNGSA,A,3,01,03,02,08,17,14,32,22,04,27,,,0.81,0.45,0.68,1*0C
$GNGSA,A,3,71,86,70,85,72,87,77,,,,,,0.81,0.45,0.68,2*0C
$GPGSV,4,1,13,01,68,345,38,03,63,253,32,02,62,069,39,49,44,171,39,1*65
$GPGSV,4,2,13,08,38,162,18,17,27,315,24,14,21,281,27,32,20,044,30,1*65
$GPGSV,4,3,13,22,19,299,23,04,17,180,29,27,07,150,30,19,01,319,,1*6D
$GPGSV,4,4,13,28,01,085,,1*50
$GNRMC,110757.000,A,3857.8543,N,00008.0807,W,0.00,3.67,050725,,,D,V*1B
$GNGGA,110758.000,3857.8543,N,00008.0808,W,2,35,0.45,3.8,M,51.5,M,,*6F
$GNGSA,A,3,01,03,02,08,17,14,32,22,04,27,,,0.81,0.45,0.68,1*0C
$GNGSA,A,3,71,86,70,85,72,87,77,,,,,,0.81,0.45,0.68,2*0C
$GNRMC,110758.000,A,3857.8543,N,00008.0808,W,0.01,3.67,050725,,,D,V*1A
$GNGGA,110759.000,3857.8543,N,00008.0807,W,2,35,0.45,3.8,M,51.5,M,,*61
$GNGSA,A,3,01,03,02,08,17,14,32,22,04,27,,,0.81,0.45,0.68,1*0C
$GNGSA,A,3,71,86,70,85,72,87,77,,,,,,0.81,0.45,0.68,2*0C
$GNRMC,110759.000,A,3857.8543,N,00008.0807,W,0.01,3.67,050725,,,D,V*14
$GNGGA,110800.000,3857.8543,N,00008.0807,W,2,35,0.45,3.8,M,51.5,M,,*62
$GNGSA,A,3,01,03,02,08,17,14,32,22,04,27,,,0.81,0.45,0.68,1*0C
$GNGSA,A,3,71,86,70,85,72,87,77,,,,,,0.81,0.45,0.68,2*0C
$GNRMC,110800.000,A,3857.8543,N,00008.0807,W,0.01,3.67,050725,,,D,V*17
$GNGGA,110801.000,3857.8543,N,00008.0807,W,2,35,0.45,3.8,M,51.5,M,,*63
$GNGSA,A,3,01,03,02,08,17,14,32,22,04,27,,,0.81,0.45,0.68,1*0C
$GNGSA,A,3,71,86,70,85,72,87,77,,,,,,0.81,0.45,0.68,2*0C
$GNRMC,110801.000,A,3857.8543,N,00008.0807,W,0.01,3.67,050725,,,D,V*16
$GNGGA,110802.000,3857.8543,N,00008.0807,W,2,35,0.45,3.8,M,51.5,M,,*60
$GNGSA,A,3,01,03,02,08,17,14,32,22,04,27,,,0.81,0.45,0.68,1*0C
$GNGSA,A,3,71,86,70,85,72,87,77,,,,,,0.81,0.45,0.68,2*0C
$GPGSV,4,1,13,01,68,345,38,03,63,253,33,02,62,069,39,49,44,171,39,1*64
$GPGSV,4,2,13,08,38,162,17,17,27,315,26,14,21,281,26,32,20,044,31,1*68
$GPGSV,4,3,13,22,19,299,25,04,17,180,29,27,07,150,31,19,01,319,,1*6A
$GPGSV,4,4,13,28,01,085,,1*50
$GNRMC,110802.000,A,3857.8543,N,00008.0807,W,0.01,3.67,050725,,,D,V*15
$GNGGA,110803.000,3857.8543,N,00008.0807,W,2,35,0.45,3.7,M,51.5,M,,*6E
$GNGSA,A,3,01,03,02,08,17,14,32,22,04,27,,,0.81,0.45,0.68,1*0C
$GNGSA,A,3,71,86,70,85,72,87,77,,,,,,0.81,0.45,0.68,2*0C
$GNRMC,110803.000,A,3857.8543,N,00008.0807,W,0.01,3.67,050725,,,D,V*14
$GNGGA,110804.000,3857.8543,N,00008.0806,W,2,35,0.45,3.7,M,51.5,M,,*68
$GNGSA,A,3,01,03,02,08,17,14,32,22,04,27,,,0.81,0.45,0.68,1*0C
$GNGSA,A,3,71,86,70,85,72,87,77,,,,,,0.81,0.45,0.68,2*0C
$GNRMC,110804.000,A,3857.8543,N,00008.0806,W,0.01,3.67,050725,,,D,V*12
$GNGGA,110805.000,3857.8544,N,00008.0806,W,2,35,0.45,3.7,M,51.5,M,,*6E
$GNGSA,A,3,01,03,02,08,17,14,32,22,04,27,,,0.81,0.45,0.68,1*0C
$GNGSA,A,3,71,86,70,85,72,87,77,,,,,,0.81,0.45,0.68,2*0C
$GNRMC,110805.000,A,3857.8544,N,00008.0806,W,0.01,3.67,050725,,,D,V*14
$GNGGA,110806.000,3857.8544,N,00008.0806,W,2,35,0.45,3.7,M,51.5,M,,*6D
$GNGSA,A,3,01,03,02,08,17,14,32,22,04,27,,,0.81,0.45,0.68,1*0C
$GNGSA,A,3,71,86,70,85,72,87,77,,,,,,0.81,0.45,0.68,2*0C
$GNRMC,110806.000,A,3857.8544,N,00008.0806,W,0.01,3.67,050725,,,D,V*17
$GNGGA,110807.000,3857.8544,N,00008.0806,W,2,35,0.45,3.7,M,51.5,M,,*6C
$GNGSA,A,3,01,03,02,08,17,14,32,22,04,27,,,0.81,0.45,0.68,1*0C
$GNGSA,A,3,71,86,70,85,72,87,77,,,,,,0.81,0.45,0.68,2*0C
$GPGSV,4,1,13,01,68,345,40,03,63,253,33,02,62,069,40,49,44,171,40,1*6B
$GPGSV,4,2,13,08,38,162,18,17,27,315,26,14,21,281,28,32,20,044,30,1*68
$GPGSV,4,3,13,22,19,299,23,04,17,180,31,27,07,150,31,19,01,319,,1*65
$GPGSV,4,4,13,28,01,085,,1*50
$GNRMC,110807.000,A,3857.8544,N,00008.0806,W,0.01,3.67,050725,,,D,V*16
$GNGGA,110808.000,3857.8544,N,00008.0806,W,2,35,0.45,3.7,M,51.5,M,,*63
$GNGSA,A,3,01,03,02,08,17,14,32,22,04,27,,,0.81,0.45,0.68,1*0C
$GNGSA,A,3,71,86,70,85,72,87,77,,,,,,0.81,0.45,0.68,2*0C
$GNRMC,110808.000,A,3857.8544,N,00008.0806,W,0.01,3.67,050725,,,D,V*19
$GNGGA,110809.000,3857.8544,N,00008.0806,W,2,35,0.45,3.7,M,51.5,M,,*62
$GNGSA,A,3,01,03,02,08,17,14,32,22,04,27,,,0.81,0.45,0.68,1*0C
$GNGSA,A,3,71,86,70,85,72,87,77,,,,,,0.81,0.45,0.68,2*0C
$GNRMC,110809.000,A,3857.8544,N,00008.0806,W,0.01,3.67,050725,,,D,V*18
$GNGGA,110810.000,3857.8544,N,00008.0805,W,2,35,0.45,3.7,M,51.5,M,,*69
$GNGSA,A,3,01,03,02,08,17,14,32,22,04,27,,,0.81,0.45,0.68,1*0C
$GNGSA,A,3,71,86,70,85,72,87,77,,,,,,0.81,0.45,0.68,2*0C
$GNRMC,110810.000,A,3857.8544,N,00008.0805,W,0.01,3.67,050725,,,D,V*13
$GNGGA,110811.000,3857.8544,N,00008.0805,W,2,35,0.45,3.7,M,51.5,M,,*68
$GNGSA,A,3,01,03,02,08,17,14,32,22,04,27,,,0.81,0.45,0.68,1*0C
$GNGSA,A,3,71,86,70,85,72,87,77,,,,,,0.81,0.45,0.68,2*0C
$GNRMC,110811.000,A,3857.8544,N,00008.0805,W,0.01,3.67,050725,,,D,V*12
$GNGGA,110812.000,3857.8544,N,00008.0805,W,2,35,0.45,3.7,M,51.5,M,,*6B
$GNGSA,A,3,01,03,02,08,17,14,32,22,04,27,,,0.81,0.45,0.68,1*0C
$GNGSA,A,3,71,86,70,85,72,87,77,,,,,,0.81,0.45,0.68,2*0C
$GPGSV,4,1,13,01,68,345,38,03,63,253,34,02,62,069,39,49,44,171,39,1*63
$GPGSV,4,2,13,08,38,162,15,17,27,315,27,14,21,281,26,32,20,044,29,1*62
$GPGSV,4,3,13,22,19,299,22,04,17,180,29,27,07,150,29,19,01,319,,1*64
$GPGSV,4,4,13,28,01,085,,1*50
$GNRMC,110812.000,A,3857.8544,N,00008.0805,W,0.01,3.67,050725,,,D,V*11
$GNGGA,110813.000,3857.8544,N,00008.0805,W,2,35,0.45,3.7,M,51.5,M,,*6A
$GNGSA,A,3,01,03,02,08,17,14,32,22,04,27,,,0.81,0.45,0.68,1*0C
$GNGSA,A,3,71,86,70,85,72,87,77,,,,,,0.81,0.45,0.68,2*0C
$GNRMC,110813.000,A,3857.8544,N,00008.0805,W,0.01,3.67,050725,,,D,V*10
$GNGGA,110814.000,3857.8545,N,00008.0805,W,2,35,0.45,3.8,M,51.5,M,,*63
$GNGSA,A,3,01,03,02,08,17,14,32,22,04,27,,,0.81,0.45,0.68,1*0C
$GNGSA,A,3,71,86,70,85,72,87,77,,,,,,0.81,0.45,0.68,2*0C
$GNRMC,110814.000,A,3857.8545,N,00008.0805,W,0.01,3.67,050725,,,D,V*16
$GNGGA,110815.000,3857.8544,N,00008.0804,W,2,35,0.45,3.8,M,51.5,M,,*62
$GNGSA,A,3,01,03,02,08,17,14,32,22,04,27,,,0.81,0.45,0.68,1*0C
$GNGSA,A,3,71,86,70,85,72,87,77,,,,,,0.81,0.45,0.68,2*0C
$GNRMC,110815.000,A,3857.8544,N,00008.0804,W,0.02,3.67,050725,,,D,V*14
$GNGGA,110816.000,3857.8544,N,00008.0804,W,2,35,0.45,3.8,M,51.5,M,,*61
$GNGSA,A,3,01,03,02,08,17,14,32,22,04,27,,,0.81,0.45,0.68,1*0C
$GNGSA,A,3,71,86,70,85,72,87,77,,,,,,0.81,0.45,0.68,2*0C
$GNRMC,110816.000,A,3857.8544,N,00008.0804,W,0.02,3.67,050725,,,D,V*17
$GNGGA,110817.000,3857.8544,N,00008.0804,W,2,35,0.45,3.8,M,51.5,M,,*60
$GNGSA,A,3,01,03,02,08,17,14,32,22,04,27,,,0.81,0.45,0.68,1*0C
$GNGSA,A,3,71,86,70,85,72,87,77,,,,,,0.81,0.45,0.68,2*0C
$GPGSV,4,1,13,01,68,345,38,03,63,253,33,02,62,069,39,49,44,171,39,1*64
$GPGSV,4,2,13,08,38,162,15,17,27,315,24,14,21,281,27,32,20,044,28,1*61
$GPGSV,4,3,13,22,19,299,23,04,17,180,29,27,07,150,30,19,01,319,,1*6D
$GPGSV,4,4,13,28,01,085,,1*50
$GNRMC,110817.000,A,3857.8544,N,00008.0804,W,0.01,3.67,050725,,,D,V*15
$GNGGA,110818.000,3857.8545,N,00008.0804,W,2,35,0.45,3.8,M,51.5,M,,*6E
$GNGSA,A,3,01,03,02,08,17,14,32,22,04,27,,,0.81,0.45,0.68,1*0C
$GNGSA,A,3,71,86,70,85,72,87,77,,,,,,0.81,0.45,0.68,2*0C
$GNRMC,110818.000,A,3857.8545,N,00008.0804,W,0.02,3.67,050725,,,D,V*18
$GNGGA,110819.000,3857.8544,N,00008.0803,W,2,35,0.45,3.8,M,51.5,M,,*69
$GNGSA,A,3,01,03,02,08,17,14,32,22,04,27,,,0.81,0.45,0.68,1*0C
$GNGSA,A,3,71,86,70,85,72,87,77,,,,,,0.81,0.45,0.68,2*0C
$GNRMC,110819.000,A,3857.8544,N,00008.0803,W,0.01,3.67,050725,,,D,V*1C
$GNGGA,110820.000,3857.8545,N,00008.0802,W,2,35,0.45,3.7,M,51.5,M,,*6C
$GNGSA,A,3,01,03,02,08,17,14,32,22,04,27,,,0.81,0.45,0.68,1*0C
$GNGSA,A,3,71,86,70,85,72,87,77,,,,,,0.81,0.45,0.68,2*0C
$GNRMC,110820.000,A,3857.8545,N,00008.0802,W,0.01,3.67,050725,,,D,V*16
$GNGGA,110821.000,3857.8545,N,00008.0801,W,2,35,0.45,3.7,M,51.5,M,,*6E
$GNGSA,A,3,01,03,02,08,17,14,32,22,04,27,,,0.81,0.45,0.68,1*0C
$GNGSA,A,3,71,86,70,85,72,87,77,,,,,,0.81,0.45,0.68,2*0C
$GNRMC,110821.000,A,3857.8545,N,00008.0801,W,0.01,3.67,050725,,,D,V*14
$GNGGA,110822.000,3857.8545,N,00008.0801,W,2,35,0.45,3.6,M,51.5,M,,*6C
$GNGSA,A,3,01,03,02,08,17,14,32,22,04,27,,,0.81,0.45,0.68,1*0C
$GNGSA,A,3,71,86,70,85,72,87,77,,,,,,0.81,0.45,0.68,2*0C
$GPGSV,4,1,13,01,68,345,39,03,63,253,35,02,62,069,40,49,44,171,40,1*63
$GPGSV,4,2,13,08,38,162,20,17,27,315,27,14,21,281,25,32,20,044,28,1*66
$GPGSV,4,3,13,22,19,299,17,04,17,180,32,27,07,150,32,19,01,319,,1*62
$GPGSV,4,4,13,28,01,085,,1*50
$GNRMC,110822.000,A,3857.8545,N,00008.0801,W,0.01,3.67,050725,,,D,V*17
$GNGGA,110823.000,3857.8545,N,00008.0800,W,2,35,0.45,3.5,M,51.5,M,,*6F
$GNGSA,A,3,01,03,02,08,17,14,32,22,04,27,,,0.81,0.45,0.68,1*0C
$GNGSA,A,3,71,86,70,85,72,87,77,,,,,,0.81,0.45,0.68,2*0C
$GNRMC,110823.000,A,3857.8545,N,00008.0800,W,0.01,3.67,050725,,,D,V*17
$GNGGA,110824.000,3857.8545,N,00008.0800,W,2,35,0.45,3.5,M,51.5,M,,*68
$GNGSA,A,3,01,03,02,08,17,14,32,22,04,27,,,0.81,0.45,0.68,1*0C
$GNGSA,A,3,71,86,70,85,72,87,77,,,,,,0.81,0.45,0.68,2*0C
$GNRMC,110824.000,A,3857.8545,N,00008.0800,W,0.01,3.67,050725,,,D,V*10
$GNGGA,110825.000,3857.8545,N,00008.0800,W,2,35,0.45,3.5,M,51.5,M,,*69
$GNGSA,A,3,01,03,02,08,17,14,32,22,04,27,,,0.81,0.45,0.68,1*0C
$GNGSA,A,3,71,86,70,85,72,87,77,,,,,,0.81,0.45,0.68,2*0C
$GNRMC,110825.000,A,3857.8545,N,00008.0800,W,0.01,3.67,050725,,,D,V*11
$GNGGA,110826.000,3857.8545,N,00008.0799,W,2,35,0.45,3.5,M,51.5,M,,*65
$GNGSA,A,3,01,03,02,08,17,14,32,22,04,27,,,0.81,0.45,0.68,1*0C
$GNGSA,A,3,71,86,70,85,72,87,77,,,,,,0.81,0.45,0.68,2*0C
$GNRMC,110826.000,A,3857.8545,N,00008.0799,W,0.01,3.67,050725,,,D,V*1D
$GNGGA,110827.000,3857.8545,N,00008.0799,W,2,35,0.45,3.5,M,51.5,M,,*64
$GNGSA,A,3,01,03,02,08,17,14,32,22,04,27,,,0.81,0.45,0.68,1*0C
$GNGSA,A,3,71,86,70,85,72,87,77,,,,,,0.81,0.45,0.68,2*0C
$GPGSV,4,1,13,01,68,345,40,03,63,253,35,02,62,069,40,49,44,171,41,1*6C
$GPGSV,4,2,13,08,38,162,23,17,27,315,28,14,21,281,27,32,20,044,30,1*61
$GPGSV,4,3,13,22,19,299,16,04,17,180,33,27,07,150,32,19,01,319,,1*62
$GPGSV,4,4,13,28,01,085,,1*50
$GNRMC,110827.000,A,3857.8545,N,00008.0799,W,0.01,3.67,050725,,,D,V*1C
$GNGGA,110828.000,3857.8545,N,00008.0798,W,2,35,0.45,3.4,M,51.5,M,,*6B
$GNGSA,A,3,01,03,02,08,17,14,32,22,04,27,,,0.81,0.45,0.68,1*0C
$GNGSA,A,3,71,86,70,85,72,87,77,,,,,,0.81,0.45,0.68,2*0C
$GNRMC,110828.000,A,3857.8545,N,00008.0798,W,0.01,3.67,050725,,,D,V*12
$GNGGA,110829.000,3857.8546,N,00008.0798,W,2,35,0.45,3.4,M,51.5,M,,*69
$GNGSA,A,3,01,03,02,08,17,14,32,22,04,27,,,0.81,0.45,0.68,1*0C
$GNGSA,A,3,71,86,70,85,72,87,77,,,,,,0.81,0.45,0.68,2*0C
$GNRMC,110829.000,A,3857.8546,N,00008.0798,W,0.01,3.67,050725,,,D,V*10
$GNGGA,110830.000,3857.8545,N,00008.0798,W,2,35,0.45,3.5,M,51.5,M,,*63
$GNGSA,A,3,01,03,02,08,17,14,32,22,04,27,,,0.81,0.45,0.68,1*0C
$GNGSA,A,3,71,86,70,85,72,87,77,,,,,,0.81,0.45,0.68,2*0C
$GNRMC,110830.000,A,3857.8545,N,00008.0798,W,0.01,3.67,050725,,,D,V*1B
$GNGGA,110831.000,3857.8545,N,00008.0798,W,2,35,0.45,3.5,M,51.5,M,,*62
$GNGSA,A,3,01,03,02,08,17,14,32,22,04,27,,,0.81,0.45,0.68,1*0C
$GNGSA,A,3,71,86,70,85,72,87,77,,,,,,0.81,0.45,0.68,2*0C
$GNRMC,110831.000,A,3857.8545,N,00008.0798,W,0.01,3.67,050725,,,D,V*1A
$GNGGA,110832.000,3857.8545,N,00008.0797,W,2,35,0.45,3.4,M,51.5,M,,*6F
$GNGSA,A,3,01,03,02,08,17,14,32,22,04,27,,,0.81,0.45,0.68,1*0C
$GNGSA,A,3,71,86,70,85,72,87,77,,,,,,0.81,0.45,0.68,2*0C
$GPGSV,4,1,13,01,68,345,40,03,63,253,35,02,62,069,40,49,44,171,41,1*6C
$GPGSV,4,2,13,08,38,162,22,17,27,315,28,14,21,281,27,32,20,044,30,1*60
$GPGSV,4,3,13,22,19,299,12,04,17,180,33,27,07,150,32,19,01,319,,1*66
$GPGSV,4,4,13,28,01,085,,1*50
$GNRMC,110832.000,A,3857.8545,N,00008.0797,W,0.01,3.67,050725,,,D,V*16
$GNGGA,110833.000,3857.8545,N,00008.0797,W,2,35,0.45,3.4,M,51.5,M,,*6E
$GNGSA,A,3,01,03,02,08,17,14,32,22,04,27,,,0.81,0.45,0.68,1*0C
$GNGSA,A,3,71,86,70,85,72,87,77,,,,,,0.81,0.45,0.68,2*0C
$GNRMC,110833.000,A,3857.8545,N,00008.0797,W,0.01,3.67,050725,,,D,V*17
$GNGGA,110834.000,3857.8545,N,00008.0797,W,2,35,0.45,3.3,M,51.5,M,,*6E
$GNGSA,A,3,01,03,02,08,17,14,32,22,04,27,,,0.81,0.45,0.68,1*0C
$GNGSA,A,3,71,86,70,85,72,87,77,,,,,,0.81,0.45,0.68,2*0C
$GNRMC,110834.000,A,3857.8545,N,00008.0797,W,0.01,3.67,050725,,,D,V*10
$GNGGA,110835.000,3857.8545,N,00008.0797,W,2,35,0.45,3.2,M,51.5,M,,*6E
$GNGSA,A,3,01,03,02,08,17,14,32,22,04,27,,,0.81,0.45,0.68,1*0C
$GNGSA,A,3,71,86,70,85,72,87,77,,,,,,0.81,0.45,0.68,2*0C
$GNRMC,110835.000,A,3857.8545,N,00008.0797,W,0.01,3.67,050725,,,D,V*11
$GNGGA,110836.000,3857.8545,N,00008.0797,W,2,35,0.45,3.2,M,51.5,M,,*6D
$GNGSA,A,3,01,03,02,08,17,14,32,22,04,27,,,0.81,0.45,0.68,1*0C
$GNGSA,A,3,71,86,70,85,72,87,77,,,,,,0.81,0.45,0.68,2*0C
$GNRMC,110836.000,A,3857.8545,N,00008.0797,W,0.01,3.67,050725,,,D,V*12
$GNGGA,110837.000,3857.8545,N,00008.0797,W,2,35,0.45,3.1,M,51.5,M,,*6F
$GNGSA,A,3,01,03,02,08,17,14,32,22,04,27,,,0.81,0.45,0.68,1*0C
$GNGSA,A,3,71,86,70,85,72,87,77,,,,,,0.81,0.45,0.68,2*0C
$GPGSV,4,1,13,01,68,345,40,03,63,253,36,02,62,069,40,49,44,171,41,1*6F
$GPGSV,4,2,13,08,38,162,22,17,27,315,27,14,21,281,28,32,20,044,30,1*60
$GPGSV,4,3,13,22,19,299,14,04,17,180,33,27,07,150,32,19,01,319,,1*60
$GPGSV,4,4,13,28,01,085,,1*50
$GNRMC,110837.000,A,3857.8545,N,00008.0797,W,0.01,3.67,050725,,,D,V*13
$GNGGA,110838.000,3857.8545,N,00008.0797,W,2,35,0.45,3.0,M,51.5,M,,*61
$GNGSA,A,3,01,03,02,08,17,14,32,22,04,27,,,0.81,0.45,0.68,1*0C
$GNGSA,A,3,71,86,70,85,72,87,77,,,,,,0.81,0.45,0.68,2*0C
$GNRMC,110838.000,A,3857.8545,N,00008.0797,W,0.01,3.67,050725,,,D,V*1C
$GNGGA,110839.000,3857.8545,N,00008.0797,W,2,35,0.45,3.0,M,51.5,M,,*60
$GNGSA,A,3,01,03,02,08,17,14,32,22,04,27,,,0.81,0.45,0.68,1*0C
$GNGSA,A,3,71,86,70,85,72,87,77,,,,,,0.81,0.45,0.68,2*0C
$GNRMC,110839.000,A,3857.8545,N,00008.0797,W,0.01,3.67,050725,,,D,V*1D
$GNGGA,110840.000,3857.8545,N,00008.0796,W,2,35,0.45,3.0,M,51.5,M,,*6F
$GNGSA,A,3,01,03,02,08,17,14,32,22,04,27,,,0.81,0.45,0.68,1*0C
$GNGSA,A,3,71,86,70,85,72,87,77,,,,,,0.81,0.45,0.68,2*0C
$GNRMC,110840.000,A,3857.8545,N,00008.0796,W,0.01,3.67,050725,,,D,V*12
$GNGGA,110841.000,3857.8545,N,00008.0797,W,2,35,0.45,2.9,M,51.5,M,,*67
$GNGSA,A,3,01,03,02,08,17,14,32,22,04,27,,,0.81,0.45,0.68,1*0C
$GNGSA,A,3,71,86,70,85,72,87,77,,,,,,0.81,0.45,0.68,2*0C
$GNRMC,110841.000,A,3857.8545,N,00008.0797,W,0.01,3.67,050725,,,D,V*12
$GNGGA,110842.000,3857.8545,N,00008.0797,W,2,35,0.45,2.9,M,51.5,M,,*64
$GNGSA,A,3,01,03,02,08,17,14,32,22,04,27,,,0.81,0.45,0.68,1*0C
$GNGSA,A,3,71,86,70,85,72,87,77,,,,,,0.81,0.45,0.68,2*0C
$GPGSV,4,1,13,01,68,345,40,03,63,253,36,02,62,069,40,49,44,171,41,1*6F
$GPGSV,4,2,13,08,38,162,25,17,27,315,28,14,21,281,29,32,20,044,30,1*69
$GPGSV,4,3,13,22,19,299,12,04,17,180,33,27,07,150,32,19,01,319,,1*66
$GPGSV,4,4,13,28,01,085,,1*50
$GNRMC,110842.000,A,3857.8545,N,00008.0797,W,0.01,3.67,050725,,,D,V*11
$GNGGA,110843.000,3857.8545,N,00008.0797,W,2,34,0.46,2.8,M,51.5,M,,*66
$GNGSA,A,3,01,03,02,08,17,14,32,22,04,27,,,0.82,0.46,0.68,1*0C
$GNGSA,A,3,71,86,70,85,72,87,77,,,,,,0.82,0.46,0.68,2*0C
$GNRMC,110843.000,A,3857.8545,N,00008.0797,W,0.02,3.67,050725,,,D,V*13
$GNGGA,110844.000,3857.8545,N,00008.0797,W,2,35,0.45,2.8,M,51.5,M,,*63
$GNGSA,A,3,01,03,02,08,17,14,32,22,04,27,,,0.81,0.45,0.68,1*0C
$GNGSA,A,3,71,86,70,85,72,87,77,,,,,,0.81,0.45,0.68,2*0C
$GNRMC,110844.000,A,3857.8545,N,00008.0797,W,0.02,3.67,050725,,,D,V*14
$GNGGA,110845.000,3857.8546,N,00008.0798,W,2,35,0.45,2.8,M,51.5,M,,*6E
$GNGSA,A,3,01,03,02,08,17,14,32,22,04,27,,,0.81,0.45,0.68,1*0C
$GNGSA,A,3,71,86,70,85,72,87,77,,,,,,0.81,0.45,0.68,2*0C
$GNRMC,110845.000,A,3857.8546,N,00008.0798,W,0.02,3.67,050725,,,D,V*19
$GNGGA,110846.000,3857.8546,N,00008.0798,W,2,35,0.45,2.9,M,51.5,M,,*6C
$GNGSA,A,3,01,03,02,08,17,14,32,22,04,27,,,0.81,0.45,0.68,1*0C
$GNGSA,A,3,71,86,70,85,72,87,77,,,,,,0.81,0.45,0.68,2*0C
$GNRMC,110846.000,A,3857.8546,N,00008.0798,W,0.02,3.67,050725,,,D,V*1A
$GNGGA,110847.000,3857.8546,N,00008.0798,W,2,35,0.45,2.9,M,51.5,M,,*6D
$GNGSA,A,3,01,03,02,08,17,14,32,22,04,27,,,0.81,0.45,0.68,1*0C
$GNGSA,A,3,71,86,70,85,72,87,77,,,,,,0.81,0.45,0.68,2*0C
$GPGSV,4,1,13,01,68,345,40,03,63,253,36,02,62,069,40,49,44,171,41,1*6F
$GPGSV,4,2,13,08,38,162,25,17,27,315,26,14,21,281,30,32,20,044,29,1*67
$GPGSV,4,3,13,22,19,299,20,04,17,180,32,27,07,150,31,19,01,319,,1*65
$GPGSV,4,4,13,28,01,085,,1*50
$GNRMC,110847.000,A,3857.8546,N,00008.0798,W,0.02,3.67,050725,,,D,V*1B
$GNGGA,110848.000,3857.8546,N,00008.0798,W,2,35,0.45,3.0,M,51.5,M,,*6A
$GNGSA,A,3,01,03,02,08,17,14,32,22,04,27,,,0.81,0.45,0.68,1*0C
$GNGSA,A,3,71,86,70,85,72,87,77,,,,,,0.81,0.45,0.68,2*0C
$GNRMC,110848.000,A,3857.8546,N,00008.0798,W,0.02,3.67,050725,,,D,V*14
$GNGGA,110849.000,3857.8546,N,00008.0799,W,2,35,0.45,3.0,M,51.5,M,,*6A
$GNGSA,A,3,01,03,02,08,17,14,32,22,04,27,,,0.81,0.45,0.68,1*0C
$GNGSA,A,3,71,86,70,85,72,87,77,,,,,,0.81,0.45,0.68,2*0C
$GNRMC,110849.000,A,3857.8546,N,00008.0799,W,0.01,3.67,050725,,,D,V*17
$GNGGA,110850.000,3857.8546,N,00008.0798,W,2,35,0.45,3.1,M,51.5,M,,*62
$GNGSA,A,3,01,03,02,08,17,14,32,22,04,27,,,0.81,0.45,0.68,1*0C
$GNGSA,A,3,71,86,70,85,72,87,77,,,,,,0.81,0.45,0.68,2*0C
$GNRMC,110850.000,A,3857.8546,N,00008.0798,W,0.02,3.67,050725,,,D,V*1D
$GNGGA,110851.000,3857.8546,N,00008.0798,W,2,35,0.45,3.1,M,51.5,M,,*63
$GNGSA,A,3,01,03,02,08,17,14,32,22,04,27,,,0.81,0.45,0.68,1*0C
$GNGSA,A,3,71,86,70,85,72,87,77,,,,,,0.81,0.45,0.68,2*0C
$GNRMC,110851.000,A,3857.8546,N,00008.0798,W,0.01,3.67,050725,,,D,V*1F
$GNGGA,110852.000,3857.8546,N,00008.0798,W,2,35,0.45,3.1,M,51.5,M,,*60
$GNGSA,A,3,01,03,02,08,17,14,32,22,04,27,,,0.81,0.45,0.68,1*0C
$GNGSA,A,3,71,86,70,85,72,87,77,,,,,,0.81,0.45,0.68,2*0C
$GPGSV,4,1,13,01,68,345,39,03,63,253,36,02,62,069,40,49,44,171,40,1*60
$GPGSV,4,2,13,08,38,162,26,17,27,315,25,14,21,281,31,32,20,044,29,1*66
$GPGSV,4,3,13,22,19,299,18,04,17,180,32,27,07,150,31,19,01,319,,1*6E
$GPGSV,4,4,13,28,01,085,,1*50
$GNRMC,110852.000,A,3857.8546,N,00008.0798,W,0.01,3.67,050725,,,D,V*1C
$GNGGA,110853.000,3857.8546,N,00008.0798,W,2,35,0.45,3.1,M,51.5,M,,*61
$GNGSA,A,3,01,03,02,08,17,14,32,22,04,27,,,0.81,0.45,0.68,1*0C
$GNGSA,A,3,71,86,70,85,72,87,77,,,,,,0.81,0.45,0.68,2*0C
$GNRMC,110853.000,A,3857.8546,N,00008.0798,W,0.01,3.67,050725,,,D,V*1D
$GNGGA,110854.000,3857.8546,N,00008.0798,W,2,35,0.45,3.1,M,51.5,M,,*66
$GNGSA,A,3,01,03,02,08,17,14,32,22,04,27,,,0.81,0.45,0.68,1*0C
$GNGSA,A,3,71,86,70,85,72,87,77,,,,,,0.81,0.45,0.68,2*0C
$GNRMC,110854.000,A,3857.8546,N,00008.0798,W,0.01,3.67,050725,,,D,V*1A
$GNGGA,110855.000,3857.8546,N,00008.0798,W,2,35,0.45,3.1,M,51.5,M,,*67
$GNGSA,A,3,01,03,02,08,17,14,32,22,04,27,,,0.81,0.45,0.68,1*0C
$GNGSA,A,3,71,86,70,85,72,87,77,,,,,,0.81,0.45,0.68,2*0C
$GNRMC,110855.000,A,3857.8546,N,00008.0798,W,0.01,3.67,050725,,,D,V*1B
$GNGGA,110856.000,3857.8546,N,00008.0798,W,2,35,0.45,3.0,M,51.5,M,,*65
$GNGSA,A,3,01,03,02,08,17,14,32,22,04,27,,,0.81,0.45,0.68,1*0C
$GNGSA,A,3,71,86,70,85,72,87,77,,,,,,0.81,0.45,0.68,2*0C
$GNRMC,110856.000,A,3857.8546,N,00008.0798,W,0.01,3.67,050725,,,D,V*18
$GNGGA,110857.000,3857.8546,N,00008.0798,W,2,35,0.45,3.0,M,51.5,M,,*64
$GNGSA,A,3,01,03,02,08,17,14,32,22,04,27,,,0.81,0.45,0.68,1*0C
$GNGSA,A,3,71,86,70,85,72,87,77,,,,,,0.81,0.45,0.68,2*0C
$GPGSV,4,1,13,01,68,345,39,03,63,253,37,02,62,069,40,49,44,171,39,1*6F
$GPGSV,4,2,13,08,38,162,28,17,27,315,25,14,21,281,32,32,20,044,29,1*6B
$GPGSV,4,3,13,22,19,299,17,04,17,180,32,27,07,150,31,19,01,319,,1*61
$GPGSV,4,4,13,28,01,085,,1*50
$GNRMC,110857.000,A,3857.8546,N,00008.0798,W,0.01,3.67,050725,,,D,V*19
$GNGGA,110858.000,3857.8546,N,00008.0798,W,2,35,0.45,3.0,M,51.5,M,,*6B
$GNGSA,A,3,01,03,02,08,17,14,32,22,04,27,,,0.81,0.45,0.68,1*0C
$GNGSA,A,3,71,86,70,85,72,87,77,,,,,,0.81,0.45,0.68,2*0C
$GNRMC,110858.000,A,3857.8546,N,00008.0798,W,0.01,3.67,050725,,,D,V*16
$GNGGA,110859.000,3857.8546,N,00008.0798,W,2,35,0.45,3.1,M,51.5,M,,*6B
$GNGSA,A,3,01,03,02,08,17,14,32,22,04,27,,,0.81,0.45,0.68,1*0C
$GNGSA,A,3,71,86,70,85,72,87,77,,,,,,0.81,0.45,0.68,2*0C
$GNRMC,110859.000,A,3857.8546,N,00008.0798,W,0.01,3.67,050725,,,D,V*17
$GNGGA,110900.000,3857.8545,N,00008.0799,W,2,35,0.45,3.1,M,51.5,M,,*64
$GNGSA,A,3,01,03,02,08,17,14,32,22,04,27,,,0.81,0.45,0.68,1*0C
$GNGSA,A,3,71,86,70,85,72,87,77,,,,,,0.81,0.45,0.68,2*0C
$GNRMC,110900.000,A,3857.8545,N,00008.0799,W,0.01,3.67,050725,,,D,V*18
$GNGGA,110901.000,3857.8545,N,00008.0799,W,2,35,0.45,3.1,M,51.5,M,,*65
$GNGSA,A,3,01,03,02,08,17,14,32,22,04,27,,,0.81,0.45,0.68,1*0C
$GNGSA,A,3,71,86,70,85,72,87,77,,,,,,0.81,0.45,0.68,2*0C
$GNRMC,110901.000,A,3857.8545,N,00008.0799,W,0.01,3.67,050725,,,D,V*19
$GNGGA,110902.000,3857.8545,N,00008.0799,W,2,35,0.45,3.1,M,51.5,M,,*66
$GNGSA,A,3,01,03,02,08,17,14,32,22,04,27,,,0.81,0.45,0.68,1*0C
$GNGSA,A,3,71,86,70,85,72,87,77,,,,,,0.81,0.45,0.68,2*0C
$GPGSV,4,1,13,01,69,348,39,03,64,256,37,02,62,071,40,49,44,171,39,1*68
$GPGSV,4,2,13,08,38,162,27,17,27,315,25,14,21,281,32,32,20,044,29,1*64
$GPGSV,4,3,13,22,19,299,16,04,17,180,33,27,07,150,31,19,01,319,,1*61
$GPGSV,4,4,13,28,01,085,,1*50
$GNRMC,110902.000,A,3857.8545,N,00008.0799,W,0.01,3.67,050725,,,D,V*1A
$GNGGA,110903.000,3857.8545,N,00008.0798,W,2,35,0.45,3.0,M,51.5,M,,*67
$GNGSA,A,3,01,03,02,08,17,14,32,22,04,27,,,0.81,0.45,0.68,1*0C
$GNGSA,A,3,71,86,70,85,72,87,77,,,,,,0.81,0.45,0.68,2*0C
$GNRMC,110903.000,A,3857.8545,N,00008.0798,W,0.01,3.67,050725,,,D,V*1A
$GNGGA,110904.000,3857.8545,N,00008.0798,W,2,35,0.45,3.0,M,51.5,M,,*60
$GNGSA,A,3,01,03,02,08,17,14,32,22,04,27,,,0.81,0.45,0.68,1*0C
$GNGSA,A,3,71,86,70,85,72,87,77,,,,,,0.81,0.45,0.68,2*0C
$GNRMC,110904.000,A,3857.8545,N,00008.0798,W,0.01,3.67,050725,,,D,V*1D
$GNGGA,110905.000,3857.8545,N,00008.0798,W,2,35,0.45,3.0,M,51.5,M,,*61
$GNGSA,A,3,01,03,02,08,17,14,32,22,04,27,,,0.81,0.45,0.68,1*0C
$GNGSA,A,3,71,86,70,85,72,87,77,,,,,,0.81,0.45,0.68,2*0C
$GNRMC,110905.000,A,3857.8545,N,00008.0798,W,0.01,3.67,050725,,,D,V*1C
$GNGGA,110906.000,3857.8545,N,00008.0798,W,2,35,0.45,3.0,M,51.5,M,,*62
$GNGSA,A,3,01,03,02,08,17,14,32,22,04,27,,,0.81,0.45,0.68,1*0C
$GNGSA,A,3,71,86,70,85,72,87,77,,,,,,0.81,0.45,0.68,2*0C
$GNRMC,110906.000,A,3857.8545,N,00008.0798,W,0.02,3.67,050725,,,D,V*1C
$GNGGA,110907.000,3857.8545,N,00008.0798,W,2,35,0.45,3.0,M,51.5,M,,*63
$GNGSA,A,3,01,03,02,08,17,14,32,22,04,27,,,0.81,0.45,0.68,1*0C
$GNGSA,A,3,71,86,70,85,72,87,77,,,,,,0.81,0.45,0.68,2*0C
$GPGSV,4,1,13,01,69,348,39,03,64,256,37,02,62,071,40,49,44,171,39,1*68
$GPGSV,4,2,13,08,37,162,27,17,27,315,25,14,21,281,32,32,20,044,29,1*6B
$GPGSV,4,3,13,22,19,299,15,04,18,179,33,27,07,150,31,19,01,319,,1*6B
$GPGSV,4,4,13,28,01,085,,1*50
$GNRMC,110907.000,A,3857.8545,N,00008.0798,W,0.02,3.67,050725,,,D,V*1D
$GNGGA,110908.000,3857.8546,N,00008.0798,W,2,35,0.45,3.0,M,51.5,M,,*6F
$GNGSA,A,3,01,03,02,08,17,14,32,22,04,27,,,0.81,0.45,0.68,1*0C
$GNGSA,A,3,71,86,70,85,72,87,77,,,,,,0.81,0.45,0.68,2*0C
$GNRMC,110908.000,A,3857.8546,N,00008.0798,W,0.02,3.67,050725,,,D,V*11
$GNGGA,110909.000,3857.8546,N,00008.0799,W,2,35,0.45,3.0,M,51.5,M,,*6F
$GNGSA,A,3,01,03,02,08,17,14,32,22,04,27,,,0.81,0.45,0.68,1*0C
$GNGSA,A,3,71,86,70,85,72,87,77,,,,,,0.81,0.45,0.68,2*0C
$GNRMC,110909.000,A,3857.8546,N,00008.0799,W,0.02,3.67,050725,,,D,V*11
$GNGGA,110910.000,3857.8546,N,00008.0799,W,2,35,0.45,3.0,M,51.5,M,,*67
$GNGSA,A,3,01,03,02,08,17,14,32,22,04,27,,,0.81,0.45,0.68,1*0C
$GNGSA,A,3,71,86,70,85,72,87,77,,,,,,0.81,0.45,0.68,2*0C
$GNRMC,110910.000,A,3857.8546,N,00008.0799,W,0.01,3.67,050725,,,D,V*1A
$GNGGA,110911.000,3857.8546,N,00008.0799,W,2,35,0.45,3.0,M,51.5,M,,*66
$GNGSA,A,3,01,03,02,08,17,14,32,22,04,27,,,0.81,0.45,0.68,1*0C
$GNGSA,A,3,71,86,70,85,72,87,77,,,,,,0.81,0.45,0.68,2*0C
$GNRMC,110911.000,A,3857.8546,N,00008.0799,W,0.01,3.67,050725,,,D,V*1B
$GNGGA,110912.000,3857.8546,N,00008.0799,W,2,35,0.45,3.0,M,51.5,M,,*65
$GNGSA,A,3,01,03,02,08,17,14,32,22,04,27,,,0.81,0.45,0.68,1*0C
$GNGSA,A,3,71,86,70,85,72,87,77,,,,,,0.81,0.45,0.68,2*0C
$GPGSV,4,1,13,01,69,348,39,03,64,256,37,02,62,071,40,49,44,171,40,1*66
$GPGSV,4,2,13,08,37,162,27,17,27,315,23,14,21,281,32,32,20,044,29,1*6D
$GPGSV,4,3,13,22,19,299,16,04,18,179,33,27,07,150,31,19,01,319,,1*68
$GPGSV,4,4,13,28,01,085,,1*50
$GNRMC,110912.000,A,3857.8546,N,00008.0799,W,0.01,3.67,050725,,,D,V*18
$GNGGA,110913.000,3857.8546,N,00008.0799,W,2,35,0.45,3.1,M,51.5,M,,*65
$GNGSA,A,3,01,03,02,08,17,14,32,22,04,27,,,0.81,0.45,0.68,1*0C
$GNGSA,A,3,71,86,70,85,72,87,77,,,,,,0.81,0.45,0.68,2*0C
$GNRMC,110913.000,A,3857.8546,N,00008.0799,W,0.01,3.67,050725,,,D,V*19
$GNGGA,110914.000,3857.8546,N,00008.0799,W,2,35,0.45,3.1,M,51.5,M,,*62
$GNGSA,A,3,01,03,02,08,17,14,32,22,04,27,,,0.81,0.45,0.68,1*0C
$GNGSA,A,3,71,86,70,85,72,87,77,,,,,,0.81,0.45,0.68,2*0C
$GNRMC,110914.000,A,3857.8546,N,00008.0799,W,0.01,3.67,050725,,,D,V*1E
$GNGGA,110915.000,3857.8546,N,00008.0799,W,2,35,0.45,3.2,M,51.5,M,,*60
$GNGSA,A,3,01,03,02,08,17,14,32,22,04,27,,,0.81,0.45,0.68,1*0C
$GNGSA,A,3,71,86,70,85,72,87,77,,,,,,0.81,0.45,0.68,2*0C
$GNRMC,110915.000,A,3857.8546,N,00008.0799,W,0.01,3.67,050725,,,D,V*1F
$GNGGA,110916.000,3857.8546,N,00008.0799,W,2,35,0.45,3.2,M,51.5,M,,*63
$GNGSA,A,3,01,03,02,08,17,14,32,22,04,27,,,0.81,0.45,0.68,1*0C
$GNGSA,A,3,71,86,70,85,72,87,77,,,,,,0.81,0.45,0.68,2*0C
$GNRMC,110916.000,A,3857.8546,N,00008.0799,W,0.01,3.67,050725,,,D,V*1C
$GNGGA,110917.000,3857.8546,N,00008.0799,W,2,34,0.46,3.3,M,51.5,M,,*61
$GNGSA,A,3,01,03,02,08,17,32,14,04,27,,,,0.83,0.46,0.69,1*0C
$GNGSA,A,3,71,86,70,85,72,87,77,,,,,,0.83,0.46,0.69,2*0C
$GPGSV,3,1,12,01,69,348,39,03,64,256,37,02,62,071,40,49,44,171,40,1*60
$GPGSV,3,2,12,08,37,162,26,17,28,315,24,32,20,044,28,14,20,279,31,1*66
$GPGSV,3,3,12,22,19,299,,04,18,179,33,27,07,150,31,28,01,085,,1*6D
$GNRMC,110917.000,A,3857.8546,N,00008.0799,W,0.01,3.67,050725,,,D,V*1D
$GNGGA,110918.000,3857.8546,N,00008.0799,W,2,34,0.46,3.3,M,51.5,M,,*6E
$GNGSA,A,3,01,03,02,08,17,14,32,04,27,,,,0.83,0.46,0.69,1*0C
$GNGSA,A,3,71,86,70,85,72,87,77,,,,,,0.83,0.46,0.69,2*0C
$GNRMC,110918.000,A,3857.8546,N,00008.0799,W,0.01,3.67,050725,,,D,V*12
$GNGGA,110919.000,3857.8547,N,00008.0799,W,2,34,0.46,3.3,M,51.5,M,,*6E
$GNGSA,A,3,01,03,02,08,17,14,32,04,27,,,,0.83,0.46,0.69,1*0C
$GNGSA,A,3,71,86,70,85,72,87,77,,,,,,0.83,0.46,0.69,2*0C
$GNRMC,110919.000,A,3857.8547,N,00008.0799,W,0.01,3.67,050725,,,D,V*12
$GNGGA,110920.000,3857.8547,N,00008.0799,W,2,35,0.45,3.2,M,51.5,M,,*67
$GNGSA,A,3,01,03,02,08,17,14,32,22,04,27,,,0.81,0.45,0.68,1*0C
$GNGSA,A,3,71,86,70,85,72,87,77,,,,,,0.81,0.45,0.68,2*0C
$GNRMC,110920.000,A,3857.8547,N,00008.0799,W,0.01,3.67,050725,,,D,V*18
$GNGGA,110921.000,3857.8547,N,00008.0799,W,2,35,0.45,3.2,M,51.5,M,,*66
$GNGSA,A,3,01,03,02,08,17,14,32,22,04,27,,,0.81,0.45,0.68,1*0C
$GNGSA,A,3,71,86,70,85,72,87,77,,,,,,0.81,0.45,0.68,2*0C
$GNRMC,110921.000,A,3857.8547,N,00008.0799,W,0.01,3.67,050725,,,D,V*19
$GNGGA,110922.000,3857.8547,N,00008.0799,W,2,35,0.45,3.2,M,51.5,M,,*65
$GNGSA,A,3,01,03,02,08,17,14,32,22,04,27,,,0.81,0.45,0.68,1*0C
$GNGSA,A,3,71,86,70,85,72,87,77,,,,,,0.81,0.45,0.68,2*0C
$GPGSV,4,1,13,01,69,348,40,03,64,256,37,02,62,071,40,49,44,171,40,1*68
$GPGSV,4,2,13,08,37,162,26,17,28,315,24,14,20,279,31,32,20,044,28,1*60
$GPGSV,4,3,13,22,19,298,14,04,18,179,33,27,07,150,31,19,02,319,,1*68
$GPGSV,4,4,13,28,01,085,,1*50
$GNRMC,110922.000,A,3857.8547,N,00008.0799,W,0.01,3.67,050725,,,D,V*1A
$GNGGA,110923.000,3857.8548,N,00008.0798,W,2,35,0.45,3.1,M,51.5,M,,*69
$GNGSA,A,3,01,03,02,08,17,14,32,22,04,27,,,0.81,0.45,0.68,1*0C
$GNGSA,A,3,71,86,70,85,72,87,77,,,,,,0.81,0.45,0.68,2*0C
$GNRMC,110923.000,A,3857.8548,N,00008.0798,W,0.02,3.67,050725,,,D,V*16
$GNGGA,110924.000,3857.8548,N,00008.0798,W,2,35,0.45,3.1,M,51.5,M,,*6E
$GNGSA,A,3,01,03,02,08,17,14,32,22,04,27,,,0.81,0.45,0.68,1*0C
$GNGSA,A,3,71,86,70,85,72,87,77,,,,,,0.81,0.45,0.68,2*0C
$GNRMC,110924.000,A,3857.8548,N,00008.0798,W,0.02,3.67,050725,,,D,V*11
$GNGGA,110925.000,3857.8548,N,00008.0797,W,2,35,0.45,3.0,M,51.5,M,,*61
$GNGSA,A,3,01,03,02,08,17,14,32,22,04,27,,,0.81,0.45,0.68,1*0C
$GNGSA,A,3,71,86,70,85,72,87,77,,,,,,0.81,0.45,0.68,2*0C
$GNRMC,110925.000,A,3857.8548,N,00008.0797,W,0.02,3.67,050725,,,D,V*1F
$GNGGA,110926.000,3857.8548,N,00008.0797,W,2,35,0.45,3.0,M,51.5,M,,*62
$GNGSA,A,3,01,03,02,08,17,32,14,22,04,27,,,0.81,0.45,0.68,1*0C
$GNGSA,A,3,71,86,70,85,72,87,77,,,,,,0.81,0.45,0.68,2*0C
$GNRMC,110926.000,A,3857.8548,N,00008.0797,W,0.02,3.67,050725,,,D,V*1C
$GNGGA,110927.000,3857.8548,N,00008.0796,W,2,35,0.45,2.9,M,51.5,M,,*6A
$GNGSA,A,3,01,03,02,08,17,14,32,22,04,27,,,0.81,0.45,0.68,1*0C
$GNGSA,A,3,71,86,70,85,72,87,77,,,,,,0.81,0.45,0.68,2*0C
$GPGSV,4,1,13,01,69,348,40,03,64,256,36,02,62,071,40,49,44,171,40,1*69
$GPGSV,4,2,13,08,37,162,28,17,28,315,24,14,20,279,31,32,20,044,28,1*6E
$GPGSV,4,3,13,22,19,298,16,04,18,179,33,27,06,150,31,19,02,319,,1*6B
$GPGSV,4,4,13,28,02,084,,1*52
$GNRMC,110927.000,A,3857.8548,N,00008.0796,W,0.02,3.67,050725,,,D,V*1C
$GNGGA,110928.000,3857.8548,N,00008.0796,W,2,35,0.45,2.9,M,51.5,M,,*65
$GNGSA,A,3,01,03,02,08,17,14,32,22,04,27,,,0.81,0.45,0.68,1*0C
$GNGSA,A,3,71,86,70,85,72,87,77,,,,,,0.81,0.45,0.68,2*0C
$GNRMC,110928.000,A,3857.8548,N,00008.0796,W,0.01,3.67,050725,,,D,V*10
$GNGGA,110929.000,3857.8548,N,00008.0796,W,2,34,0.46,2.9,M,51.5,M,,*66
$GNGSA,A,3,01,03,02,08,17,14,32,04,27,,,,0.82,0.46,0.68,1*0C
$GNGSA,A,3,71,86,70,85,72,87,77,,,,,,0.82,0.46,0.68,2*0C
$GNRMC,110929.000,A,3857.8548,N,00008.0796,W,0.01,3.67,050725,,,D,V*11
$GNGGA,110930.000,3857.8549,N,00008.0795,W,2,34,0.46,2.8,M,51.5,M,,*6D
$GNGSA,A,3,01,03,02,08,17,14,32,04,27,,,,0.82,0.46,0.68,1*0C
$GNGSA,A,3,71,86,70,85,72,87,77,,,,,,0.82,0.46,0.68,2*0C
$GNRMC,110930.000,A,3857.8549,N,00008.0795,W,0.01,3.67,050725,,,D,V*1B
$GNGGA,110931.000,3857.8549,N,00008.0795,W,2,34,0.46,2.7,M,51.5,M,,*63
$GNGSA,A,3,01,03,02,08,17,14,32,04,27,,,,0.82,0.46,0.68,1*0C
$GNGSA,A,3,71,86,70,85,72,87,77,,,,,,0.82,0.46,0.68,2*0C
$GNRMC,110931.000,A,3857.8549,N,00008.0795,W,0.02,3.67,050725,,,D,V*19
$GNGGA,110932.000,3857.8549,N,00008.0794,W,2,34,0.46,2.7,M,51.5,M,,*61
$GNGSA,A,3,01,03,02,08,17,14,32,04,27,,,,0.82,0.46,0.68,1*0C
$GNGSA,A,3,71,86,70,85,72,87,77,,,,,,0.82,0.46,0.68,2*0C
$GPGSV,4,1,13,01,69,348,39,03,64,256,36,02,62,071,40,49,44,171,40,1*67
$GPGSV,4,2,13,08,37,162,29,17,28,315,25,14,20,279,31,32,19,044,28,1*64
$GPGSV,4,3,13,22,19,298,14,04,18,179,34,27,06,150,31,19,02,319,,1*6E
$GPGSV,4,4,13,28,02,084,,1*52
$GNRMC,110932.000,A,3857.8549,N,00008.0794,W,0.02,3.67,050725,,,D,V*1B
$GNGGA,110933.000,3857.8550,N,00008.0793,W,2,34,0.46,2.7,M,51.5,M,,*6F
$GNGSA,A,3,01,03,02,08,17,14,32,04,27,,,,0.82,0.46,0.68,1*0C
$GNGSA,A,3,71,86,70,85,72,87,77,,,,,,0.82,0.46,0.68,2*0C
$GNRMC,110933.000,A,3857.8550,N,00008.0793,W,0.02,3.67,050725,,,D,V*15
$GNGGA,110934.000,3857.8550,N,00008.0793,W,2,35,0.45,2.7,M,51.5,M,,*6A
$GNGSA,A,3,01,03,02,08,17,14,32,22,04,27,,,0.81,0.45,0.68,1*0C
$GNGSA,A,3,71,86,70,85,72,87,77,,,,,,0.81,0.45,0.68,2*0C
$GNRMC,110934.000,A,3857.8550,N,00008.0793,W,0.02,3.67,050725,,,D,V*12
$GNGGA,110935.000,3857.8550,N,00008.0793,W,2,33,0.47,2.7,M,51.5,M,,*6F
$GNGSA,A,3,01,03,02,08,17,14,32,04,27,,,,0.85,0.47,0.71,1*02
$GNGSA,A,3,71,86,70,85,72,87,,,,,,,0.85,0.47,0.71,2*02
$GNRMC,110935.000,A,3857.8550,N,00008.0793,W,0.02,3.67,050725,,,D,V*13
$GNGGA,110936.000,3857.8550,N,00008.0792,W,2,34,0.46,2.8,M,51.5,M,,*64
$GNGSA,A,3,01,03,02,08,17,14,32,22,04,27,,,0.84,0.46,0.70,1*03
$GNGSA,A,3,71,86,70,85,72,87,,,,,,,0.84,0.46,0.70,2*03
$GNRMC,110936.000,A,3857.8550,N,00008.0792,W,0.02,3.67,050725,,,D,V*11
$GNGGA,110937.000,3857.8551,N,00008.0792,W,2,34,0.46,2.8,M,51.5,M,,*64
$GNGSA,A,3,01,03,02,08,17,14,32,22,04,27,,,0.84,0.46,0.70,1*03
$GNGSA,A,3,71,86,70,85,72,87,,,,,,,0.84,0.46,0.70,2*03
$GPGSV,4,1,13,01,69,348,40,03,64,256,35,02,62,071,40,49,44,171,40,1*6A
$GPGSV,4,2,13,08,37,162,30,17,28,315,25,14,20,279,31,32,19,044,28,1*6C
$GPGSV,4,3,13,22,19,298,17,04,18,179,33,27,06,150,31,19,02,319,,1*6A
$GPGSV,4,4,13,28,02,084,,1*52
$GNRMC,110937.000,A,3857.8551,N,00008.0792,W,0.01,3.67,050725,,,D,V*12
$GNGGA,110938.000,3857.8551,N,00008.0792,W,2,33,0.47,2.8,M,51.5,M,,*6D
$GNGSA,A,3,01,03,02,08,17,14,32,04,27,,,,0.85,0.47,0.71,1*02
$GNGSA,A,3,71,86,70,85,72,87,,,,,,,0.85,0.47,0.71,2*02
$GNRMC,110938.000,A,3857.8551,N,00008.0792,W,0.01,3.67,050725,,,D,V*1D
$GNGGA,110939.000,3857.8552,N,00008.0792,W,2,34,0.46,2.8,M,51.5,M,,*69
$GNGSA,A,3,01,03,02,08,17,14,32,22,04,27,,,0.84,0.46,0.70,1*03
$GNGSA,A,3,71,86,70,85,72,87,,,,,,,0.84,0.46,0.70,2*03
$GNRMC,110939.000,A,3857.8552,N,00008.0792,W,0.01,3.67,050725,,,D,V*1F
$GNGSA,A,3,01,03,02,08,17,14,32,04,27,,,,0.85,0.47,0.71,1*02
$GNGSA,A,3,71,86,70,85,72,87,,,,,,,0.85,0.47,0.71,2*02
$GNRMC,111043.000,A,3857.8545,N,00008.0802,W,0.01,3.67,050725,,,D,V*1A
$GNGGA,111044.000,3857.8545,N,00008.0802,W,2,33,0.47,6.1,M,51.5,M,,*60
$GNGSA,A,3,01,03,02,08,17,14,32,04,27,,,,0.85,0.47,0.71,1*02
$GNGSA,A,3,71,86,70,85,72,87,,,,,,,0.85,0.47,0.71,2*02
$GNRMC,111044.000,A,3857.8545,N,00008.0802,W,0.01,3.67,050725,,,D,V*1D
$GNGGA,111045.000,3857.8545,N,00008.0803,W,2,33,0.47,6.2,M,51.5,M,,*63
$GNGSA,A,3,01,03,02,08,17,14,32,04,27,,,,0.85,0.47,0.71,1*02
$GNGSA,A,3,71,86,70,85,72,87,,,,,,,0.85,0.47,0.71,2*02
$GNRMC,111045.000,A,3857.8545,N,00008.0803,W,0.01,3.67,050725,,,D,V*1D
$GNGGA,111046.000,3857.8545,N,00008.0803,W,2,34,0.46,6.2,M,51.5,M,,*66
$GNGSA,A,3,01,03,02,08,17,14,32,22,04,27,,,0.84,0.46,0.70,1*03
$GNGSA,A,3,71,86,70,85,72,87,,,,,,,0.84,0.46,0.70,2*03
$GNRMC,111046.000,A,3857.8545,N,00008.0803,W,0.01,3.67,050725,,,D,V*1E
$GNGGA,111047.000,3857.8545,N,00008.0803,W,2,33,0.47,6.2,M,51.5,M,,*61
$GNGSA,A,3,01,03,02,08,17,14,32,04,27,,,,0.85,0.47,0.71,1*02
$GNGSA,A,3,71,86,70,85,72,87,,,,,,,0.85,0.47,0.71,2*02
$GPGSV,4,1,13,01,69,348,42,03,64,256,38,02,62,071,41,49,44,171,41,1*65
$GPGSV,4,2,13,08,37,162,34,17,28,315,23,14,20,279,30,32,19,044,31,1*67
$GPGSV,4,3,13,22,19,298,20,04,18,179,37,27,06,150,29,19,02,319,,1*63
$GPGSV,4,4,13,28,02,084,,1*52
$GNRMC,111047.000,A,3857.8545,N,00008.0803,W,0.01,3.67,050725,,,D,V*1F
$GNGGA,111048.000,3857.8545,N,00008.0803,W,2,34,0.46,6.3,M,51.5,M,,*69
$GNGSA,A,3,01,03,02,08,17,14,32,22,04,27,,,0.84,0.46,0.70,1*03
$GNGSA,A,3,71,86,70,85,72,87,,,,,,,0.84,0.46,0.70,2*03
$GNRMC,111048.000,A,3857.8545,N,00008.0803,W,0.01,3.67,050725,,,D,V*10
$GNGGA,111049.000,3857.8545,N,00008.0803,W,2,33,0.47,6.3,M,51.5,M,,*6E
$GNGSA,A,3,01,03,02,08,17,14,32,04,27,,,,0.85,0.47,0.71,1*02
$GNGSA,A,3,71,86,70,85,72,87,,,,,,,0.85,0.47,0.71,2*02
$GNRMC,111049.000,A,3857.8545,N,00008.0803,W,0.01,3.67,050725,,,D,V*11
$GNGGA,111050.000,3857.8544,N,00008.0804,W,2,34,0.46,6.3,M,51.5,M,,*66
$GNGSA,A,3,01,03,02,08,17,14,32,22,04,27,,,0.84,0.46,0.70,1*03
$GNGSA,A,3,71,86,70,85,72,87,,,,,,,0.84,0.46,0.70,2*03
$GNRMC,111050.000,A,3857.8544,N,00008.0804,W,0.01,3.67,050725,,,D,V*1F
$GNGGA,111051.000,3857.8544,N,00008.0804,W,2,33,0.47,6.3,M,51.5,M,,*61
$GNGSA,A,3,01,03,02,08,17,14,32,04,27,,,,0.85,0.47,0.71,1*02
$GNGSA,A,3,71,86,70,85,72,87,,,,,,,0.85,0.47,0.71,2*02
$GNRMC,111051.000,A,3857.8544,N,00008.0804,W,0.01,3.67,050725,,,D,V*1E
$GNGGA,111052.000,3857.8544,N,00008.0804,W,2,33,0.47,6.2,M,51.5,M,,*63
$GNGSA,A,3,01,03,02,08,17,14,32,04,27,,,,0.85,0.47,0.71,1*02
$GNGSA,A,3,71,86,70,85,72,87,,,,,,,0.85,0.47,0.71,2*02
$GPGSV,4,1,13,01,69,348,42,03,64,256,38,02,62,071,41,49,44,171,41,1*65
$GPGSV,4,2,13,08,37,162,34,17,28,315,22,14,20,279,29,32,19,044,31,1*6E
$GPGSV,4,3,13,22,19,298,21,04,18,179,37,27,06,150,27,19,02,319,,1*6C
$GPGSV,4,4,13,28,02,084,,1*52
$GNRMC,111052.000,A,3857.8544,N,00008.0804,W,0.01,3.67,050725,,,D,V*1D
$GNGGA,111053.000,3857.8544,N,00008.0804,W,2,34,0.46,6.2,M,51.5,M,,*64
$GNGSA,A,3,01,03,02,08,17,14,22,32,04,27,,,0.84,0.46,0.70,1*03
$GNGSA,A,3,71,86,70,85,72,87,,,,,,,0.84,0.46,0.70,2*03
$GNRMC,111053.000,A,3857.8544,N,00008.0804,W,0.01,3.67,050725,,,D,V*1C
$GNGGA,111054.000,3857.8545,N,00008.0804,W,2,34,0.46,6.1,M,51.5,M,,*61
$GNGSA,A,3,01,03,02,08,17,14,22,32,04,27,,,0.84,0.46,0.70,1*03
$GNGSA,A,3,71,86,70,85,72,87,,,,,,,0.84,0.46,0.70,2*03
$GNRMC,111054.000,A,3857.8545,N,00008.0804,W,0.01,3.67,050725,,,D,V*1A
$GNGGA,111055.000,3857.8545,N,00008.0804,W,2,34,0.46,6.1,M,51.5,M,,*60
$GNGSA,A,3,01,03,02,08,17,14,32,22,04,27,,,0.84,0.46,0.70,1*03
$GNGSA,A,3,71,86,70,85,72,87,,,,,,,0.84,0.46,0.70,2*03
$GNRMC,111055.000,A,3857.8545,N,00008.0804,W,0.01,3.67,050725,,,D,V*1B
$GNGGA,111056.000,3857.8544,N,00008.0803,W,2,33,0.47,6.0,M,51.5,M,,*62
$GNGSA,A,3,01,03,02,08,17,14,32,04,27,,,,0.85,0.47,0.71,1*02
$GNGSA,A,3,71,86,70,85,72,87,,,,,,,0.85,0.47,0.71,2*02
$GNRMC,111056.000,A,3857.8544,N,00008.0803,W,0.01,3.67,050725,,,D,V*1E
$GNGGA,111057.000,3857.8544,N,00008.0803,W,2,34,0.46,6.0,M,51.5,M,,*65
$GNGSA,A,3,01,03,02,08,17,14,32,22,04,27,,,0.84,0.46,0.70,1*03
$GNGSA,A,3,71,86,70,85,72,87,,,,,,,0.84,0.46,0.70,2*03
$GPGSV,4,1,13,01,69,348,42,03,64,256,38,02,62,071,41,49,44,171,41,1*65
$GPGSV,4,2,13,08,37,162,34,17,28,315,23,14,20,279,29,32,19,044,31,1*6F
$GPGSV,4,3,13,22,19,298,22,04,18,179,37,27,06,150,26,19,02,319,,1*6E
$GPGSV,4,4,13,28,02,084,,1*52
$GNRMC,111057.000,A,3857.8544,N,00008.0803,W,0.01,3.67,050725,,,D,V*1F
$GNGGA,111058.000,3857.8544,N,00008.0804,W,2,34,0.46,5.8,M,51.5,M,,*66
$GNGSA,A,3,01,03,02,08,17,14,32,22,04,27,,,0.84,0.46,0.70,1*03
$GNGSA,A,3,71,86,70,85,72,87,,,,,,,0.84,0.46,0.70,2*03
$GNRMC,111058.000,A,3857.8544,N,00008.0804,W,0.01,3.67,050725,,,D,V*17
$GNGGA,111059.000,3857.8544,N,00008.0803,W,2,34,0.46,5.8,M,51.5,M,,*60
$GNGSA,A,3,01,03,02,08,17,14,32,22,04,27,,,0.84,0.46,0.70,1*03
$GNGSA,A,3,71,86,70,85,72,87,,,,,,,0.84,0.46,0.70,2*03
$GNRMC,111059.000,A,3857.8544,N,00008.0803,W,0.01,3.67,050725,,,D,V*11
$GNGGA,111100.000,3857.8544,N,00008.0803,W,2,34,0.46,5.7,M,51.5,M,,*62
$GNGSA,A,3,01,03,02,08,17,14,32,22,04,27,,,0.84,0.46,0.70,1*03
$GNGSA,A,3,71,86,70,85,72,87,,,,,,,0.84,0.46,0.70,2*03
$GNRMC,111100.000,A,3857.8544,N,00008.0803,W,0.01,3.67,050725,,,D,V*1C
$GNGGA,111101.000,3857.8544,N,00008.0803,W,2,33,0.47,5.6,M,51.5,M,,*64
$GNGSA,A,3,01,03,02,08,17,14,32,04,27,,,,0.85,0.47,0.71,1*02
$GNGSA,A,3,71,86,70,85,72,87,,,,,,,0.85,0.47,0.71,2*02
$GNRMC,111101.000,A,3857.8544,N,00008.0803,W,0.01,3.67,050725,,,D,V*1D
$GNGGA,111102.000,3857.8544,N,00008.0803,W,2,34,0.46,5.5,M,51.5,M,,*62
$GNGSA,A,3,01,03,02,08,17,14,32,22,04,27,,,0.84,0.46,0.70,1*03
$GNGSA,A,3,71,86,70,85,72,87,,,,,,,0.84,0.46,0.70,2*03
$GPGSV,4,1,13,01,69,348,42,03,64,256,38,02,62,071,41,49,44,171,41,1*65
$GPGSV,4,2,13,08,37,162,34,17,28,315,23,14,20,279,28,32,19,044,30,1*6F
$GPGSV,4,3,13,22,19,298,22,04,18,179,37,27,06,150,26,19,02,319,,1*6E
$GPGSV,4,4,13,28,02,084,,1*52
$GNRMC,111102.000,A,3857.8544,N,00008.0803,W,0.01,3.67,050725,,,D,V*1E
$GNGGA,111103.000,3857.8544,N,00008.0803,W,2,33,0.47,5.4,M,51.5,M,,*64
$GNGSA,A,3,01,03,02,08,17,14,32,04,27,,,,0.85,0.47,0.71,1*02
$GNGSA,A,3,71,86,70,85,72,87,,,,,,,0.85,0.47,0.71,2*02
$GNRMC,111103.000,A,3857.8544,N,00008.0803,W,0.01,3.67,050725,,,D,V*1F
$GNGGA,111104.000,3857.8544,N,00008.0803,W,2,33,0.47,5.4,M,51.5,M,,*63
$GNGSA,A,3,01,03,02,08,17,14,32,04,27,,,,0.85,0.47,0.71,1*02
$GNGSA,A,3,71,86,70,85,72,87,,,,,,,0.85,0.47,0.71,2*02
$GNRMC,111104.000,A,3857.8544,N,00008.0803,W,0.01,3.67,050725,,,D,V*18
$GNGGA,111105.000,3857.8544,N,00008.0803,W,2,33,0.47,5.4,M,51.5,M,,*62
$GNGSA,A,3,01,03,02,08,17,14,32,04,27,,,,0.85,0.47,0.71,1*02
$GNGSA,A,3,71,86,70,85,72,87,,,,,,,0.85,0.47,0.71,2*02
$GNRMC,111105.000,A,3857.8544,N,00008.0803,W,0.01,3.67,050725,,,D,V*19
$GNGGA,111210.000,3857.8537,N,00008.0805,W,2,33,0.47,5.9,M,51.5,M,,*6A
$GNGSA,A,3,01,03,02,08,17,14,04,32,27,,,,0.85,0.47,0.71,1*02
$GNGSA,A,3,71,86,70,85,72,87,,,,,,,0.85,0.47,0.71,2*02
$GNRMC,111210.000,A,3857.8537,N,00008.0805,W,0.01,3.67,050725,,,D,V*1C
$GNGGA,111211.000,3857.8538,N,00008.0805,W,2,33,0.47,5.9,M,51.5,M,,*64
$GNGSA,A,3,01,03,02,08,17,14,04,32,27,,,,0.85,0.47,0.71,1*02
$GNGSA,A,3,71,86,70,85,72,87,,,,,,,0.85,0.47,0.71,2*02
$GNRMC,111211.000,A,3857.8538,N,00008.0805,W,0.01,3.67,050725,,,D,V*12
$GNGGA,111212.000,3857.8538,N,00008.0805,W,2,33,0.47,5.9,M,51.5,M,,*67
$GNGSA,A,3,01,03,02,08,17,14,04,32,27,,,,0.85,0.47,0.71,1*02
$GNGSA,A,3,71,86,70,85,72,87,,,,,,,0.85,0.47,0.71,2*02
$GPGSV,4,1,13,01,69,351,40,03,65,258,37,02,61,073,42,49,44,171,40,1*6C
$GPGSV,4,2,13,08,35,162,31,17,29,314,18,14,20,278,24,04,19,179,37,1*60
$GPGSV,4,3,13,32,19,044,26,22,19,297,,27,05,150,25,19,03,319,,1*6B
$GPGSV,4,4,13,28,02,083,,1*55
$GNRMC,111212.000,A,3857.8538,N,00008.0805,W,0.01,3.67,050725,,,D,V*11
$GNGGA,111213.000,3857.8537,N,00008.0805,W,2,33,0.47,5.9,M,51.5,M,,*69
$GNGSA,A,3,01,03,02,08,17,14,04,32,27,,,,0.85,0.47,0.71,1*02
$GNGSA,A,3,71,86,70,85,72,87,,,,,,,0.85,0.47,0.71,2*02
$GNRMC,111213.000,A,3857.8537,N,00008.0805,W,0.01,3.67,050725,,,D,V*1F
$GNGGA,111214.000,3857.8537,N,00008.0805,W,2,33,0.47,5.8,M,51.5,M,,*6F
$GNGSA,A,3,01,03,02,08,17,14,04,32,27,,,,0.85,0.47,0.71,1*02
$GNGSA,A,3,71,86,70,85,72,87,,,,,,,0.85,0.47,0.71,2*02
$GNRMC,111214.000,A,3857.8537,N,00008.0805,W,0.01,3.67,050725,,,D,V*18
$GNGGA,111215.000,3857.8537,N,00008.0804,W,2,33,0.47,5.8,M,51.5,M,,*6F
$GNGSA,A,3,01,03,02,08,17,14,04,32,27,,,,0.85,0.47,0.71,1*02
$GNGSA,A,3,71,86,70,85,72,87,,,,,,,0.85,0.47,0.71,2*02
$GNRMC,111215.000,A,3857.8537,N,00008.0804,W,0.01,3.67,050725,,,D,V*18
$GNGGA,111216.000,3857.8537,N,00008.0804,W,2,33,0.47,5.8,M,51.5,M,,*6C
$GNGSA,A,3,01,03,02,08,17,14,04,32,27,,,,0.85,0.47,0.71,1*02
$GNGSA,A,3,71,86,70,85,72,87,,,,,,,0.85,0.47,0.71,2*02
$GNRMC,111216.000,A,3857.8537,N,00008.0804,W,0.01,3.67,050725,,,D,V*1B
$GNGGA,111217.000,3857.8537,N,00008.0804,W,2,33,0.47,5.7,M,51.5,M,,*62
$GNGSA,A,3,01,03,02,08,17,14,04,32,27,,,,0.85,0.47,0.71,1*02
$GNGSA,A,3,71,86,70,85,72,87,,,,,,,0.85,0.47,0.71,2*02
$GPGSV,4,1,13,01,69,351,40,03,65,258,37,02,61,073,42,49,44,171,41,1*6D
$GPGSV,4,2,13,08,35,162,32,17,29,314,18,14,20,278,24,04,19,179,37,1*63
$GPGSV,4,3,13,32,19,043,26,22,19,297,,27,05,150,26,19,03,319,,1*6F
$GPGSV,4,4,13,28,02,083,,1*55
$GNRMC,111217.000,A,3857.8537,N,00008.0804,W,0.01,3.67,050725,,,D,V*1A
$GNGGA,111218.000,3857.8537,N,00008.0804,W,2,33,0.47,5.7,M,51.5,M,,*6D
$GNGSA,A,3,01,03,02,08,17,14,04,32,27,,,,0.85,0.47,0.71,1*02
$GNGSA,A,3,71,86,70,85,72,87,,,,,,,0.85,0.47,0.71,2*02
$GNRMC,111218.000,A,3857.8537,N,00008.0804,W,0.01,3.67,050725,,,D,V*15
$GNGGA,111219.000,3857.8537,N,00008.0804,W,2,33,0.47,5.6,M,51.5,M,,*6D
$GNGSA,A,3,01,03,02,08,17,14,04,32,27,,,,0.85,0.47,0.71,1*02
$GNGSA,A,3,71,86,70,85,72,87,,,,,,,0.85,0.47,0.71,2*02
$GNRMC,111219.000,A,3857.8537,N,00008.0804,W,0.01,3.67,050725,,,D,V*14
$GNGGA,111220.000,3857.8537,N,00008.0804,W,2,33,0.47,5.6,M,51.5,M,,*67
$GNGSA,A,3,01,03,02,08,17,14,04,32,27,,,,0.85,0.47,0.71,1*02
$GNGSA,A,3,71,86,70,85,72,87,,,,,,,0.85,0.47,0.71,2*02
$GNRMC,111220.000,A,3857.8537,N,00008.0804,W,0.01,3.67,050725,,,D,V*1E
$GNGGA,111221.000,3857.8536,N,00008.0804,W,2,33,0.47,5.6,M,51.5,M,,*67
$GNGSA,A,3,01,03,02,08,17,14,04,32,27,,,,0.85,0.47,0.71,1*02
$GNGSA,A,3,71,86,70,85,72,87,,,,,,,0.85,0.47,0.71,2*02
$GNRMC,111221.000,A,3857.8536,N,00008.0804,W,0.01,3.67,050725,,,D,V*1E
$GNGGA,111222.000,3857.8536,N,00008.0804,W,2,33,0.47,5.6,M,51.5,M,,*64
$GNGSA,A,3,01,03,02,08,17,14,04,32,27,,,,0.85,0.47,0.71,1*02
$GNGSA,A,3,71,86,70,85,72,87,,,,,,,0.85,0.47,0.71,2*02
$GPGSV,4,1,13,01,69,351,40,03,65,258,37,02,61,073,42,49,44,171,41,1*6D
$GPGSV,4,2,13,08,35,162,31,17,29,314,19,14,20,278,24,04,19,179,37,1*61
$GPGSV,4,3,13,32,19,043,23,22,19,297,,27,05,150,24,19,03,319,,1*68
$GPGSV,4,4,13,28,02,083,,1*55
$GNRMC,111222.000,A,3857.8536,N,00008.0804,W,0.01,3.67,050725,,,D,V*1D
$GNGGA,111223.000,3857.8536,N,00008.0803,W,2,33,0.47,5.6,M,51.5,M,,*62
$GNGSA,A,3,01,03,02,08,17,14,04,32,27,,,,0.85,0.47,0.71,1*02
$GNGSA,A,3,71,86,70,85,72,87,,,,,,,0.85,0.47,0.71,2*02
$GNRMC,111223.000,A,3857.8536,N,00008.0803,W,0.01,3.67,050725,,,D,V*1B
$GNGGA,111224.000,3857.8536,N,00008.0803,W,2,33,0.47,5.6,M,51.5,M,,*65
$GNGSA,A,3,01,03,02,08,17,14,04,32,27,,,,0.85,0.47,0.71,1*02
$GNGSA,A,3,71,86,70,85,72,87,,,,,,,0.85,0.47,0.71,2*02
$GNRMC,111224.000,A,3857.8536,N,00008.0803,W,0.01,3.67,050725,,,D,V*1C
$GNGGA,111225.000,3857.8535,N,00008.0803,W,2,33,0.47,5.6,M,51.5,M,,*67
$GNGSA,A,3,01,03,02,08,17,14,04,32,27,,,,0.85,0.47,0.71,1*02
$GNGSA,A,3,71,86,70,85,72,87,,,,,,,0.85,0.47,0.71,2*02
$GNRMC,111225.000,A,3857.8535,N,00008.0803,W,0.01,3.67,050725,,,D,V*1E
$GNGGA,111226.000,3857.8535,N,00008.0803,W,2,33,0.47,5.5,M,51.5,M,,*67
$GNGSA,A,3,01,03,02,08,17,14,04,32,27,,,,0.85,0.47,0.71,1*02
